[
 {
  "name": "강남구보건소",
  "address": "서울 강남구 삼성동(삼성2동) 8 강남구보건소",
  "number": "02-3423-5555",
  "Latitude": 37.5163592,
  "Longitude": 127.0420799
 },
 {
  "name": "삼성서울병원",
  "address": "서울 강남구 일원로81 삼성서울병원",
  "number": "02-1599-3114",
  "Latitude": 37.4889432,
  "Longitude": 127.0876424
 },
 {
  "name": "강남세브란스병원",
  "address": "서울 강남구 언주로211 강남세브란스병원",
  "number": "02-1599-6114",
  "Latitude": 37.492753,
  "Longitude": 127.0462983
 },
 {
  "name": "강남베드로병원",
  "address": "남부순환로2637",
  "number": "02-1544-7522",
  "Latitude": 37.485327,
  "Longitude": 127.03831
 },
 {
  "name": "강동구보건소",
  "address": "서울 강동구 성내로45",
  "number": "02-3425-6713",
  "Latitude": 37.5293701,
  "Longitude": 127.1255567
 },
 {
  "name": "중앙보훈병원",
  "address": "서울 강동구 진황도로 61길 53",
  "number": "02-2225-1114",
  "Latitude": 37.528778,
  "Longitude": 127.1476066
 },
 {
  "name": "강동경희대병원",
  "address": "서울시 강동구 동남로 892",
  "number": "02-440-7000",
  "Latitude": 37.5528301,
  "Longitude": 127.1571983
 },
 {
  "name": "강동성심병원",
  "address": "서울시 강동구 성안로 150",
  "number": "1588-4100",
  "Latitude": 37.5361,
  "Longitude": 127.1353505
 },
 {
  "name": "강북구보건소",
  "address": "서울 강북구 한천로 897, 강북구보건소",
  "number": "02-901-7704.7706",
  "Latitude": 37.6320834,
  "Longitude": 127.0387673
 },
 {
  "name": "강서구보건소",
  "address": "서울 강서구 염창동 275-12 강서보건소",
  "number": "02-2600-5465",
  "Latitude": 37.5496168,
  "Longitude": 126.8682654
 },
 {
  "name": "관악구보건소",
  "address": "서울 관악구 청룡동 1570-1 ",
  "number": "02-879-7133\/7136",
  "Latitude": 37.478321,
  "Longitude": 126.9512138
 },
 {
  "name": "에이치플러스양지병원",
  "address": "서울특별시 관악구 남부순환로 1636",
  "number": "1877-8875",
  "Latitude": 37.4842166,
  "Longitude": 126.9325109
 },
 {
  "name": "광진구보건소",
  "address": "서울특별시 광진구 자양1동 777",
  "number": "02-450-7090",
  "Latitude": 37.5383742,
  "Longitude": 127.0822077
 },
 {
  "name": "건국대학교병원",
  "address": "서울특별시 광진구 능동로 120-1",
  "number": "02-1588-1533",
  "Latitude": 37.5408245,
  "Longitude": 127.0722209
 },
 {
  "name": "구로구보건소",
  "address": "서울 구로구 구로동(구로제5동) 109-4 구로5동 주민센터, 구로구보건소",
  "number": "02-860-3000",
  "Latitude": 37.5000414,
  "Longitude": 126.8893134
 },
 {
  "name": "고대구로병원",
  "address": "구로동로 148",
  "number": "02-2626-1554",
  "Latitude": 37.4922173,
  "Longitude": 126.8849478
 },
 {
  "name": "금천구보건소",
  "address": "서울 금천구 시흥제1동 1020 금천구보건소 ",
  "number": "02-2627-2717",
  "Latitude": 37.4570498,
  "Longitude": 126.8959514
 },
 {
  "name": "희명병원",
  "address": "서울특별시 금천구 시흥대로 244",
  "number": "02-2219-7231",
  "Latitude": 37.4556417,
  "Longitude": 126.9005666
 },
 {
  "name": "노원구보건소",
  "address": "서울 노원구 상계6.7동 노원구보건소, 701-1",
  "number": "02-2116-4900",
  "Latitude": 37.6540782,
  "Longitude": 127.0566045
 },
 {
  "name": "상계백병원",
  "address": "서울 노원구 동일로 1342",
  "number": "02-950-1114",
  "Latitude": 37.6486101,
  "Longitude": 127.0630785
 },
 {
  "name": "도봉구보건소",
  "address": "서울 도봉구 쌍문동 565",
  "number": "02-2091-4490",
  "Latitude": 37.6580211,
  "Longitude": 127.0387508
 },
 {
  "name": "한일병원",
  "address": "서울시 도봉구 우이천로 308(쌍문동) ",
  "number": "02-901-3114",
  "Latitude": 37.6500586,
  "Longitude": 127.0262078
 },
 {
  "name": "동대문구보건소",
  "address": "서울 동대문구 용두동 39-9 ",
  "number": "02-2127-4283",
  "Latitude": 37.5742015,
  "Longitude": 127.0398327
 },
 {
  "name": "삼육서울병원",
  "address": "서울 동대문구 망우로 82",
  "number": "1577-3675",
  "Latitude": 37.5892778,
  "Longitude": 127.0645418
 },
 {
  "name": "서울특별시동부병원",
  "address": "서울 동대문구 무학로 124 ",
  "number": "920-9435",
  "Latitude": 37.575312,
  "Longitude": 127.03151
 },
 {
  "name": "서울성심병원",
  "address": "서울 동대문구 왕산로 259",
  "number": "966-1616",
  "Latitude": 37.584392,
  "Longitude": 127.0497209
 },
 {
  "name": "경희의료원",
  "address": "서울 동대문구 경희대로 23",
  "number": "958-8114",
  "Latitude": 37.5953632,
  "Longitude": 127.0527612
 },
 {
  "name": "동작구보건소",
  "address": "서울 동작구 상도2동 176-3",
  "number": "02-820-9465",
  "Latitude": 37.5043975,
  "Longitude": 126.9410466
 },
 {
  "name": "서울특별시 보라매병원",
  "address": "동작구 보라매로5길 20",
  "number": "02-870-2114",
  "Latitude": 37.4932234,
  "Longitude": 126.9244612
 },
 {
  "name": "서울특별시 중앙대학교 병원",
  "address": "서울특별시 동작구 흑석로 102",
  "number": "1800-1114",
  "Latitude": 37.5069754,
  "Longitude": 126.9605231
 },
 {
  "name": "마포구보건소",
  "address": "서울 마포구 성산동 370",
  "number": "1577-3160",
  "Latitude": 37.5663123,
  "Longitude": 126.9020797
 },
 {
  "name": "서대문구보건소",
  "address": "서울 서대문구 연희동  연희로242 (연희동 165-2)",
  "number": "02-330-1806",
  "Latitude": 37.5785747,
  "Longitude": 126.9362575
 },
 {
  "name": "세브란스병원",
  "address": "연세로 50-1",
  "number": "1599-1004",
  "Latitude": 37.564089,
  "Longitude": 126.9389809
 },
 {
  "name": "서울중구보건소",
  "address": "서울 중구 신당동 50-5 중구보건소  ",
  "number": "02-3396-8119",
  "Latitude": 37.5447745,
  "Longitude": 127.007375
 },
 {
  "name": "인제대학교서울백병원",
  "address": "서울 중구 마른내로 9 백병원",
  "number": "02-2270-0114",
  "Latitude": 37.5649096,
  "Longitude": 126.9887525
 },
 {
  "name": "국립중앙의료원",
  "address": "중구 을지로 245",
  "number": "02-2260-7114",
  "Latitude": 37.5674232,
  "Longitude": 127.0059029
 },
 {
  "name": "서초구보건소",
  "address": "서울 서초구 서초동(서초2동) 1376-3 서초구청 보건소",
  "number": "02-2155-8093",
  "Latitude": 37.4835872,
  "Longitude": 127.0326987
 },
 {
  "name": "가톨릭대학교 서울성모병원",
  "address": "서울시 서초구 반포대로 222",
  "number": "02-1588-1511",
  "Latitude": 37.5003974,
  "Longitude": 127.0066599
 },
 {
  "name": "서울특별시 어린이병원",
  "address": "서울특별시 서초구 헌릉로 260",
  "number": "02-570-8000",
  "Latitude": 37.4554808,
  "Longitude": 127.0688387
 },
 {
  "name": "성동구보건소",
  "address": "서울 성동구 홍익동 (왕십리도선동) 16-15 성동구보건소 ",
  "number": "02-2286-7172",
  "Latitude": 37.5674274,
  "Longitude": 127.0329852
 },
 {
  "name": "한양대학교병원",
  "address": "서울특별시 성동구 왕십리로 222-1 (사근동)",
  "number": "02-2290-8114\/8531",
  "Latitude": 37.5622917,
  "Longitude": 127.0468607
 },
 {
  "name": "성동군자의원",
  "address": "서울특별시 성동구 광나루로 323 송정빌딩 2층",
  "number": "02-499-7785",
  "Latitude": 37.5483997,
  "Longitude": 127.0656559
 },
 {
  "name": "성북구보건소",
  "address": "서울특별시 성북구 화랑로 63(하월곡동, 성북구보건소) ",
  "number": "02-2241-5912",
  "Latitude": 37.6026426,
  "Longitude": 127.0395181
 },
 {
  "name": "송파구보건소",
  "address": "서울 송파구 신천동 29-5 송파구청, 보건소 ",
  "number": "02-2147-3478",
  "Latitude": 37.5145712,
  "Longitude": 127.1060696
 },
 {
  "name": "서울아산병원",
  "address": "올림픽로43길 88",
  "number": "02-1688-7575",
  "Latitude": 37.5254548,
  "Longitude": 127.1084185
 },
 {
  "name": "양천구보건소",
  "address": "서울 양천구 신정동(신정6동) 321-5 양천보건소",
  "number": "1533-0407",
  "Latitude": 37.5175388,
  "Longitude": 126.8658707
 },
 {
  "name": "서울특별시 서남병원",
  "address": "양천구 신정이펜1로 20",
  "number": "1566-6688",
  "Latitude": 37.5149454,
  "Longitude": 126.8280386
 },
 {
  "name": "홍익병원",
  "address": "서울 양천구 목동로 225 ",
  "number": "02-2693-5555",
  "Latitude": 37.5284349,
  "Longitude": 126.8636189
 },
 {
  "name": "영등포구보건소",
  "address": "서울 영등포구 당산동3가(당산제1동) 385-1 영등포구청 영등포구보건소",
  "number": "02-2670-4954~9",
  "Latitude": 37.5264549,
  "Longitude": 126.8955343
 },
 {
  "name": "한림대학교 강남성심병원",
  "address": "서울특별시 영등포구 신길로 1",
  "number": "1577-5587",
  "Latitude": 37.4928431,
  "Longitude": 126.9086305
 },
 {
  "name": "의료법인 성애병원",
  "address": "서울특별시 영등포구 여의대방로 53길22",
  "number": "02-840-7538",
  "Latitude": 37.5120291,
  "Longitude": 126.9223827
 },
 {
  "name": "명지성모병원",
  "address": "서울특별시 영등포구도림로 156",
  "number": "02-829-7800",
  "Latitude": 37.4938274,
  "Longitude": 126.8992573
 },
 {
  "name": "인봉의료재단 영등포병원",
  "address": "서울특별시 영등포구 당산로31길 10",
  "number": "010-5334-7708",
  "Latitude": 37.5268013,
  "Longitude": 126.8959163
 },
 {
  "name": "용산구보건소",
  "address": "서울 용산구 이태원동 34-87",
  "number": "02-2199-8373~6",
  "Latitude": 37.5324201,
  "Longitude": 126.9903488
 },
 {
  "name": "순천향대학교서울병원",
  "address": "용산구 대사관로 59(한남동)",
  "number": "02-709-9114",
  "Latitude": 37.5339355,
  "Longitude": 127.0043336
 },
 {
  "name": "은평구보건소",
  "address": "서울 은평구 녹번동 84 은평구종합청사 은평구보건소",
  "number": "02-351-8640~1",
  "Latitude": 37.6024522,
  "Longitude": 126.9288474
 },
 {
  "name": "서울특별시서북병원",
  "address": "은평구 갈현로7길 49",
  "number": "02-3156-3022",
  "Latitude": 37.6041552,
  "Longitude": 126.9048703
 },
 {
  "name": "서울특별시은평병원",
  "address": "은평구 백련산로 90",
  "number": "02-300-8124",
  "Latitude": 37.5937651,
  "Longitude": 126.9236307
 },
 {
  "name": "의료법인 청구성심병원",
  "address": "서울 은평구 통일로 873",
  "number": "350-3300",
  "Latitude": 37.6207324,
  "Longitude": 126.9194449
 },
 {
  "name": "종로구보건소",
  "address": "서울 종로구 옥인동(청운효자동) 45-30 종로구보건소",
  "number": "02-2148-2060",
  "Latitude": 37.5817685,
  "Longitude": 126.9692571
 },
 {
  "name": "강북삼성병원",
  "address": "서울시 종로구 새문안로 29",
  "number": "02-2001-1896",
  "Latitude": 37.5683585,
  "Longitude": 126.9674846
 },
 {
  "name": "서울적십자병원",
  "address": "서울시 종로구 평동 164",
  "number": "02-2002-8000",
  "Latitude": 37.5671402,
  "Longitude": 126.9670566
 },
 {
  "name": "서울대학교병원",
  "address": "서울시 종로구 대학로 101(연건동)",
  "number": "1588-5700",
  "Latitude": 37.5787974,
  "Longitude": 127.0010352
 },
 {
  "name": "중랑구보건소",
  "address": "서울 중랑구 신내2동 662 중랑구청 ",
  "number": "02-2094-0800",
  "Latitude": 37.6063046,
  "Longitude": 127.0931523
 },
 {
  "name": "서울의료원",
  "address": "중랑구 신내로 156",
  "number": "02-2276-8333",
  "Latitude": 37.613036,
  "Longitude": 127.0984134
 },
 {
  "name": "녹색병원",
  "address": "중랑구 사가정로 49길 53",
  "number": "02-490-2000",
  "Latitude": 37.5835002,
  "Longitude": 127.0861511
 },
 {
  "name": "부산강서구보건소",
  "address": "부산 강서구 대저2동 1932-1 강서브라이트센터 보건소",
  "number": "051-970-3415",
  "Latitude": 35.1804538,
  "Longitude": 128.9571914
 },
 {
  "name": "의료법인 갑을녹산재단 갑을녹산병원",
  "address": "녹산산단321로 24-8",
  "number": "051-974-8449",
  "Latitude": 35.0906026,
  "Longitude": 128.8533057
 },
 {
  "name": "금정구보건소",
  "address": "부산광역시 금정구 부곡3동 78",
  "number": "051-519-5051",
  "Latitude": 35.2428426,
  "Longitude": 129.0921739
 },
 {
  "name": "세웅병원",
  "address": "부산광역시 금정구 서동로 162(서동)",
  "number": "051-500-9700",
  "Latitude": 35.214399,
  "Longitude": 129.1040842
 },
 {
  "name": "기장군보건소",
  "address": "부산 기장군 기장읍 신천리 1번지",
  "number": "0517094796",
  "Latitude": 35.2435223,
  "Longitude": 129.2229656
 },
 {
  "name": "동남권원자력의학원",
  "address": "부산광역시 기장군 장안읍 좌동길 40",
  "number": "051-720-5114",
  "Latitude": 35.3214832,
  "Longitude": 129.243613
 },
 {
  "name": "기장병원",
  "address": "부산광역시 기장군 기장읍 대청로72번길 6",
  "number": "051-723-0171",
  "Latitude": 35.2358805,
  "Longitude": 129.216446
 },
 {
  "name": "동래구보건소",
  "address": "부산 동래구 명륜2동 702-54번지 ",
  "number": "051-555-4000",
  "Latitude": 35.2124674,
  "Longitude": 129.0815567
 },
 {
  "name": "대동병원",
  "address": "동래구 충렬대로187",
  "number": "051-554-1233",
  "Latitude": 35.2045213,
  "Longitude": 129.0802502
 },
 {
  "name": "봉생병원",
  "address": "부산광역시 동래구 안연로109번길 27",
  "number": "051-520-5510",
  "Latitude": 35.1969082,
  "Longitude": 129.0961081
 },
 {
  "name": "부산남구보건소",
  "address": "부산 남구 못골로 23",
  "number": "051-607-6460",
  "Latitude": 35.1360966,
  "Longitude": 129.0849714
 },
 {
  "name": "부산성모병원",
  "address": "부산시 남구 용호로 232번길 25-14",
  "number": "051-933-7119",
  "Latitude": 35.110167,
  "Longitude": 129.1092
 },
 {
  "name": "부산동구보건소",
  "address": "부산 동구 수정동(수정제2동) 806-74 동구청 보건소",
  "number": "051-440-6500",
  "Latitude": 35.1286709,
  "Longitude": 129.0465438
 },
 {
  "name": "좋은문화병원",
  "address": "부산광역시 동구 범일로 119(범일동)",
  "number": "051-644-2002",
  "Latitude": 35.1407228,
  "Longitude": 129.058962
 },
 {
  "name": "김원묵기념봉생병원",
  "address": "부산광역시 동구 중앙대로 401(좌천동)",
  "number": "051-664-4000",
  "Latitude": 35.1350301,
  "Longitude": 129.0553946
 },
 {
  "name": "부산북구보건소",
  "address": "부산 북구 금곡대로348 (화명동)",
  "number": "051-309-4500",
  "Latitude": 35.2392309,
  "Longitude": 129.0146965
 },
 {
  "name": "부민병원",
  "address": "부산 북구 만덕대로 59",
  "number": "051-330-3000",
  "Latitude": 35.2119687,
  "Longitude": 129.0112391
 },
 {
  "name": "구포성심병원",
  "address": "부산 북구 낙동대로 1786(구포동) ",
  "number": "051-330-2001",
  "Latitude": 35.2095944,
  "Longitude": 129.0045343
 },
 {
  "name": "부산서구보건소",
  "address": "부산 서구 부용동2가(부민동) 86 서구보건소 부민노인복지관",
  "number": "051-242-4000",
  "Latitude": 35.1074509,
  "Longitude": 129.0180656
 },
 {
  "name": "고신대학교복음병원",
  "address": "감천로 262",
  "number": "051-990-6610",
  "Latitude": 35.0812168,
  "Longitude": 129.0149444
 },
 {
  "name": "삼육부산병원",
  "address": "대티로 170",
  "number": "051-600-7386, 7791",
  "Latitude": 35.112519,
  "Longitude": 129.0112693
 },
 {
  "name": "부산중구보건소",
  "address": "부산 중구 대청동1가 중구청 중구로 120",
  "number": "051-600-4690",
  "Latitude": 35.1063286,
  "Longitude": 129.0322904
 },
 {
  "name": "메리놀병원",
  "address": "중구로 121",
  "number": "051-461-2405",
  "Latitude": 35.1073029,
  "Longitude": 129.0323992
 },
 {
  "name": "부산진구보건소",
  "address": "부산 부산진구 범천동(범천제1동) 849-10 부산진보건소",
  "number": "051-645-4000",
  "Latitude": 35.1486628,
  "Longitude": 129.051551
 },
 {
  "name": "인제대학교부산백병원",
  "address": "부산광역시 부산진구 복지로 75",
  "number": "051-890-8933",
  "Latitude": 35.1459557,
  "Longitude": 129.020811
 },
 {
  "name": "온종합병원",
  "address": "부산 부산진구 가야대로 721",
  "number": "051-607-0832",
  "Latitude": 35.1578057,
  "Longitude": 129.0499681
 },
 {
  "name": "동의병원",
  "address": "양정로 62",
  "number": "051-850-8865",
  "Latitude": 35.1704973,
  "Longitude": 129.0771742
 },
 {
  "name": "춘해병원",
  "address": "중앙대로 605",
  "number": "051-638-8000",
  "Latitude": 35.8658874,
  "Longitude": 128.5935768
 },
 {
  "name": "사상구보건소",
  "address": "부산 사상구 감전동 138-8",
  "number": "051-310-4791",
  "Latitude": 35.1524223,
  "Longitude": 128.9915872
 },
 {
  "name": "부산보훈병원",
  "address": "부산 사상구 백양대로 420 (주례동)",
  "number": "051-601-6000",
  "Latitude": 35.1507988,
  "Longitude": 129.0027795
 },
 {
  "name": "좋은삼선병원",
  "address": "부산 사상구 가야대로 326",
  "number": "051-310-0900",
  "Latitude": 35.1501479,
  "Longitude": 129.0077859
 },
 {
  "name": "사하구보건소",
  "address": "부산광역시 사하구 하신번영로127번길 2(신평동)",
  "number": "051-220-5745",
  "Latitude": 35.0942105,
  "Longitude": 128.9594902
 },
 {
  "name": "수영구보건소",
  "address": "부산 수영구 광안1동 661-1번지",
  "number": "051-752-4000",
  "Latitude": 35.1625586,
  "Longitude": 129.1134858
 },
 {
  "name": "좋은강안병원",
  "address": "부산 수영구 수영로 493",
  "number": "051-625-0900",
  "Latitude": 35.1499639,
  "Longitude": 129.1104981
 },
 {
  "name": "BHS한서병원",
  "address": "부산 수영구 수영로 615",
  "number": "051-756-0081",
  "Latitude": 35.1608916,
  "Longitude": 129.1131305
 },
 {
  "name": "연제구보건소",
  "address": "부산 연제구 연산2동 연제로 2(연산2동 1555)",
  "number": "051-665-4781",
  "Latitude": 35.1764508,
  "Longitude": 129.0794122
 },
 {
  "name": "부산광역시의료원",
  "address": "연제구 월드컵대로 359",
  "number": "051-607-2816",
  "Latitude": 35.1873066,
  "Longitude": 129.0595584
 },
 {
  "name": "영도구보건소",
  "address": "부산 영도구 청학동(청학제2동) 48-3, 영도구청 보건소동",
  "number": "051-416-4000",
  "Latitude": 35.0912037,
  "Longitude": 129.0678947
 },
 {
  "name": "영도병원",
  "address": "부산시 영도구 태종로 85",
  "number": "051-419-7873",
  "Latitude": 35.0922458,
  "Longitude": 129.0405355
 },
 {
  "name": "해동병원",
  "address": "부산시 영도구 태종로 133(봉래동 3가)",
  "number": "051-410-6682",
  "Latitude": 35.0944702,
  "Longitude": 129.0443453
 },
 {
  "name": "해운대구보건소",
  "address": "부산 해운대구 좌2동 1339",
  "number": "051-746-4000",
  "Latitude": 35.16407,
  "Longitude": 129.1788626
 },
 {
  "name": "해운대백병원",
  "address": "해운대로875",
  "number": "051-797-0100",
  "Latitude": 35.1733441,
  "Longitude": 129.1822042
 },
 {
  "name": "해운대부민병원",
  "address": "해운대로584",
  "number": "051-602-8000",
  "Latitude": 35.1613686,
  "Longitude": 129.1558441
 },
 {
  "name": "달서구보건소",
  "address": "대구 달서구 월성동(월성2동) 281 달서구청",
  "number": "053-667-5751",
  "Latitude": 35.8297339,
  "Longitude": 128.5326441
 },
 {
  "name": "삼일병원",
  "address": "대구 달서구 월배로 436",
  "number": "053-659-3100",
  "Latitude": 35.8324929,
  "Longitude": 128.5535796
 },
 {
  "name": "구병원",
  "address": "대구 달서구 감삼북길 141",
  "number": "053-560-9114",
  "Latitude": 35.8506505,
  "Longitude": 128.5413994
 },
 {
  "name": "세강병원",
  "address": "대구 달서구 구마로 220",
  "number": "053-215-6200",
  "Latitude": 35.8366663,
  "Longitude": 128.5517369
 },
 {
  "name": "W병원",
  "address": "대구 달서구 달구벌대로 1632",
  "number": "053-550-5000",
  "Latitude": 35.8532044,
  "Longitude": 128.5203154
 },
 {
  "name": "대구보훈병원",
  "address": "대구 달서구 월곡로60",
  "number": "053-630-7000",
  "Latitude": 35.8028989,
  "Longitude": 128.5517754
 },
 {
  "name": "달성군 보건소",
  "address": "대구 달성군 현풍읍 하리 253-2 ",
  "number": "053-668-3333",
  "Latitude": 35.6921268,
  "Longitude": 128.4447346
 },
 {
  "name": "대구광역시 남구보건소",
  "address": "대구 남구 대명2동 2003번지(영선길 34)",
  "number": "053-664-3601",
  "Latitude": 35.8538161,
  "Longitude": 128.5918331
 },
 {
  "name": "드림병원",
  "address": "대구 남구 대명로 153",
  "number": "053-640-8800",
  "Latitude": 35.8396305,
  "Longitude": 128.574495
 },
 {
  "name": "대구광역시 동구보건소",
  "address": "대구 동구 검사동(동촌동) 1005-8 동구보건소",
  "number": "053-662-3225",
  "Latitude": 35.8954726,
  "Longitude": 128.6617695
 },
 {
  "name": "대구파티마병원",
  "address": "대구광역시 동구 아양로 99",
  "number": "053-940-7098",
  "Latitude": 35.8840357,
  "Longitude": 128.6238479
 },
 {
  "name": "대구광역시 북구보건소",
  "address": "대구광역시 북구 침산3동 521-2 (침산동 북구보건소)",
  "number": "053-665-3211",
  "Latitude": 35.8918696,
  "Longitude": 128.5889017
 },
 {
  "name": "대구가톨릭대학교 칠곡가톨릭병원",
  "address": "대구 북구 칠곡중앙대로 440",
  "number": "053-320-2500",
  "Latitude": 35.9349066,
  "Longitude": 128.5492967
 },
 {
  "name": "대구광역시 서구보건소",
  "address": "대구 서구 평리3동 1230-9(국채보상로257)",
  "number": "053-663-4755",
  "Latitude": 35.8718022,
  "Longitude": 128.5592204
 },
 {
  "name": "대구의료원",
  "address": "대구 서구 평리로 157",
  "number": "053-560-7575",
  "Latitude": 35.8596025,
  "Longitude": 128.5405922
 },
 {
  "name": "대구광역시 중구보건소",
  "address": "대구 중구 태평로3가(성내3동) 174-1 중구보건소",
  "number": "053-661-3121",
  "Latitude": 35.8778703,
  "Longitude": 128.583387
 },
 {
  "name": "수성구보건소",
  "address": "대구 수성구 중동 266-5(수성로213) ",
  "number": "053-666-3266",
  "Latitude": 35.8447846,
  "Longitude": 128.6122124
 },
 {
  "name": "강화군보건소",
  "address": "인천 강화군 강화읍 남산리 324-1 강화군보건소",
  "number": "032-930-4007",
  "Latitude": 37.7370885,
  "Longitude": 126.4852352
 },
 {
  "name": "비에스종합병원",
  "address": "인천광역시 강화군 강화읍 충렬사로 31",
  "number": "032-290-0241",
  "Latitude": 37.7359765,
  "Longitude": 126.485859
 },
 {
  "name": "계양구보건소",
  "address": "인천 계양구 계양문화로 63",
  "number": "032-430-7821",
  "Latitude": 37.5380789,
  "Longitude": 126.7391611
 },
 {
  "name": "인성의료재단 한림병원",
  "address": "계양구 장재로 722",
  "number": "032-540-9114",
  "Latitude": 37.5321972,
  "Longitude": 126.7343305
 },
 {
  "name": "인천세종병원",
  "address": "계양구 계양문화로 20",
  "number": "032-240-8000",
  "Latitude": 37.5380789,
  "Longitude": 126.7391611
 },
 {
  "name": "인천광역시남동구보건소",
  "address": "인천광역시 남동구 소래로 633, 남동구보건소",
  "number": "032-453-8570",
  "Latitude": 37.4470653,
  "Longitude": 126.7314616
 },
 {
  "name": "인천광역시부평구보건소",
  "address": "인천광역시 부평구 부흥로 291 부평구보건소",
  "number": "032-509-8200",
  "Latitude": 37.4987886,
  "Longitude": 126.7242462
 },
 {
  "name": "부평세림병원",
  "address": "인천광역시 부평구 부평대로 175",
  "number": "032-509-5764",
  "Latitude": 37.5067625,
  "Longitude": 126.7200557
 },
 {
  "name": "가톨릭대학교 인천성모병원",
  "address": "인천광역시 부평구 동수로 56",
  "number": "032-280-6915",
  "Latitude": 37.4844074,
  "Longitude": 126.7249147
 },
 {
  "name": "근로복지공단 인천병원",
  "address": "인천광역시 부평구 무네미로 446",
  "number": "032-500-0229",
  "Latitude": 37.4761818,
  "Longitude": 126.7539528
 },
 {
  "name": "연수구보건소",
  "address": "인천 연수구 청학동  465-2(함박뫼로 13호)",
  "number": "032-749-8176",
  "Latitude": 37.4190771,
  "Longitude": 126.6711606
 },
 {
  "name": "나사렛국제병원",
  "address": "인천광역시 연수구 먼우금로 98 (동춘동, 나사렛국제병원)",
  "number": "032-899-9999",
  "Latitude": 37.4080241,
  "Longitude": 126.6705124
 },
 {
  "name": "인천적십자병원",
  "address": "인천광역시 연수구 원인재로 263 (연수동, 인천적십자병원)",
  "number": "032-899-4000",
  "Latitude": 37.4182423,
  "Longitude": 126.6895852
 },
 {
  "name": "옹진군보건소",
  "address": "인천광역시 미추홀구 매소홀로120",
  "number": "032-899-3130",
  "Latitude": 37.4465089,
  "Longitude": 126.6367441
 },
 {
  "name": "백령병원",
  "address": "인천광역시 백령로 233",
  "number": "032-836-1731",
  "Latitude": 37.9625097,
  "Longitude": 124.7005611
 },
 {
  "name": "인천광역시미추홀구보건소",
  "address": "인천광역시 미추홀구 주안로 95-19(주안역 남광장) ",
  "number": "032-880-5333~4",
  "Latitude": 37.4649204,
  "Longitude": 126.6805569
 },
 {
  "name": "인천사랑병원",
  "address": "미추홀대로 726",
  "number": "032-457-2000",
  "Latitude": 37.4524779,
  "Longitude": 126.6795367
 },
 {
  "name": "현대유비스병원",
  "address": "독배로503",
  "number": "032-890-5509",
  "Latitude": 37.450671,
  "Longitude": 126.6473763
 },
 {
  "name": "인천광역시동구보건소",
  "address": "인천 동구 만석동 18-3 인천광역시동구보건소, 1동 ",
  "number": "032-770-6156",
  "Latitude": 37.4830666,
  "Longitude": 126.6258951
 },
 {
  "name": "인천백병원",
  "address": "인천 동구 샛골로214(송림동)",
  "number": "1800-7070",
  "Latitude": 37.4748694,
  "Longitude": 126.6401746
 },
 {
  "name": "인천광역시의료원",
  "address": "인천 동구 방축로217(송림동)",
  "number": "032-580-6144",
  "Latitude": 37.4757224,
  "Longitude": 126.6400699
 },
 {
  "name": "인천광역시서구보건소",
  "address": "인천시 서구 탁옥로39(심곡동246-1) 서구보건소 ",
  "number": "032-718-0400",
  "Latitude": 37.5444051,
  "Longitude": 126.6739044
 },
 {
  "name": "검단탑병원",
  "address": "서구 청마로19번길 5",
  "number": "032-590-0119",
  "Latitude": 37.5925263,
  "Longitude": 126.6709448
 },
 {
  "name": "나은병원",
  "address": "서구 원적로 23",
  "number": "1661-0099",
  "Latitude": 37.4890123,
  "Longitude": 126.6797793
 },
 {
  "name": "(의)성세의료재단 뉴성민병원",
  "address": "서구 신석로 70",
  "number": "032-726-1000",
  "Latitude": 37.5099807,
  "Longitude": 126.6708948
 },
 {
  "name": "온누리병원",
  "address": "서구 완정로 199",
  "number": "032-567-6207",
  "Latitude": 37.6027544,
  "Longitude": 126.654316
 },
 {
  "name": "인천광역시중구보건소",
  "address": "인천 중구 전동 2-1",
  "number": "032-760-6050",
  "Latitude": 37.4772085,
  "Longitude": 126.6290335
 },
 {
  "name": "인하대병원",
  "address": "인천 중구 인항로27",
  "number": "032-890-2114",
  "Latitude": 37.458619,
  "Longitude": 126.6340376
 },
 {
  "name": "인천기독병원",
  "address": "인천 중구 답동로 30번길 10",
  "number": "032-270-8580",
  "Latitude": 37.4712731,
  "Longitude": 126.632106
 },
 {
  "name": "영종 국제도시보건과",
  "address": "인천 중구 운남서로 100-1",
  "number": "032-760-6885",
  "Latitude": 37.4938542,
  "Longitude": 126.5313043
 },
 {
  "name": "광산구보건소",
  "address": "광주광역시 광산구 송정동 833-8 (,송정동)",
  "number": "062-960-6868",
  "Latitude": 35.1397215,
  "Longitude": 126.7937002
 },
 {
  "name": "KS병원",
  "address": "광산구 왕버들로220",
  "number": "062-975-9782",
  "Latitude": 35.1978963,
  "Longitude": 126.8332013
 },
 {
  "name": "광주남구보건소",
  "address": "광주광역시 남구 봉선로 20-1",
  "number": "062-671-4339",
  "Latitude": 35.1313302,
  "Longitude": 126.9020351
 },
 {
  "name": "광주기독병원",
  "address": "광주광역시 남구 양림로 37",
  "number": "062-650-5272",
  "Latitude": 35.1366727,
  "Longitude": 126.912122
 },
 {
  "name": "광주동구보건소",
  "address": "광주 동구 서석동 31번지 ",
  "number": "062-608-3424",
  "Latitude": 35.1458272,
  "Longitude": 126.9233266
 },
 {
  "name": "전남대학교병원",
  "address": "광주광역시 동구 제봉로 42",
  "number": "062-220-5732",
  "Latitude": 35.1416819,
  "Longitude": 126.9220315
 },
 {
  "name": "조선대학교병원",
  "address": "광주광역시 동구필문대로 365",
  "number": "062-220-3996",
  "Latitude": 35.1389928,
  "Longitude": 126.9262664
 },
 {
  "name": "광주북구보건소",
  "address": "광주 북구 용봉로 136 (중흥동 336-14)",
  "number": "062-410-8112",
  "Latitude": 35.1724804,
  "Longitude": 126.903621
 },
 {
  "name": "광주일곡병원",
  "address": "광주 북구 양일로 309",
  "number": "062-608-7119",
  "Latitude": 35.2028356,
  "Longitude": 126.8976362
 },
 {
  "name": "광주서구보건소",
  "address": "광주광역시 서구 경열로 33 (서구보건소)",
  "number": "062-350-4158,4130",
  "Latitude": 35.1522914,
  "Longitude": 126.8898905
 },
 {
  "name": "서광병원",
  "address": "금화로 59번길 6 (금호동)",
  "number": "062-600-8119,8161",
  "Latitude": 35.1326041,
  "Longitude": 126.8554899
 },
 {
  "name": "대덕구보건소",
  "address": "대전 대덕구 석봉로38번길55 (석봉동)",
  "number": "042-608-4451~4455",
  "Latitude": 36.4448765,
  "Longitude": 127.4264274
 },
 {
  "name": "근로복지공단 대전병원",
  "address": "대덕구 계족로 637",
  "number": "042-670-5119(응급실)",
  "Latitude": 36.3682859,
  "Longitude": 127.4287207
 },
 {
  "name": "대전보훈병원",
  "address": "대덕구 대청로 82번길 147",
  "number": "042-939-0118,0100",
  "Latitude": 36.4473433,
  "Longitude": 127.4393525
 },
 {
  "name": "대전광역시 동구보건소",
  "address": "대전광역시 동구 가오동 425",
  "number": "042-251-6305",
  "Latitude": 36.3118501,
  "Longitude": 127.4548274
 },
 {
  "name": "대전한국병원",
  "address": "대전광역시 동구 동서대로 1672 ",
  "number": "042-606-1500",
  "Latitude": 36.3481517,
  "Longitude": 127.4358287
 },
 {
  "name": " 대전광역시 서구보건소(관저보건지소)",
  "address": "대전 서구 구봉산북로 300",
  "number": "042-288-4520",
  "Latitude": 36.3010372,
  "Longitude": 127.3450071
 },
 {
  "name": "건양대학교병원",
  "address": "대전 서구 관저동로 158",
  "number": "1577-3330",
  "Latitude": 36.2992196,
  "Longitude": 127.3403195
 },
 {
  "name": "대전광역시 중구보건소",
  "address": "대전 중구 뿌리공원로 47(안영동)",
  "number": "042-288-8043",
  "Latitude": 36.2859869,
  "Longitude": 127.3834148
 },
 {
  "name": "대전선병원",
  "address": "대전광역시 중구 목중로 29 대전선병원",
  "number": "042-220-8408",
  "Latitude": 36.3360016,
  "Longitude": 127.4101804
 },
 {
  "name": "대전광역시 유성구보건소",
  "address": "대전 유성구 노은동 270 월드컵보조경기장 P2주차장",
  "number": "042-611-5000",
  "Latitude": 36.363159,
  "Longitude": 127.323053
 },
 {
  "name": "유성선병원",
  "address": "북유성대로93",
  "number": "042-609-1000",
  "Latitude": 36.37518,
  "Longitude": 127.3248025
 },
 {
  "name": "울산남구보건소",
  "address": "울산광역시 남구 삼산중로 132, 울산남구보건소 (삼산동)",
  "number": "052-226-2805",
  "Latitude": 35.545405,
  "Longitude": 129.3362736
 },
 {
  "name": "의)정안의료재단 중앙병원",
  "address": "울산 남구 문수로 480번길 10",
  "number": "052-226-1303",
  "Latitude": 35.5315233,
  "Longitude": 129.3052032
 },
 {
  "name": "울산병원",
  "address": "울산 남구 월평로 171번길 13",
  "number": "052-259-5260",
  "Latitude": 35.546209,
  "Longitude": 129.3230784
 },
 {
  "name": "좋은삼정병원",
  "address": "울산 남구 북부순환도로 51",
  "number": "052-220-7500",
  "Latitude": 35.5528284,
  "Longitude": 129.2690588
 },
 {
  "name": "울산동구보건소",
  "address": "울산 동구 화정동 222",
  "number": "052-209-4080",
  "Latitude": 35.5050862,
  "Longitude": 129.4166463
 },
 {
  "name": "울산대학교병원",
  "address": "울산 동구 방어진순환도로 877",
  "number": "052-250-7410",
  "Latitude": 35.5200568,
  "Longitude": 129.4288608
 },
 {
  "name": "울산북구보건소",
  "address": "울산 북구 연암동(효문동) 1082 보건소",
  "number": "052-289-3450",
  "Latitude": 35.582238,
  "Longitude": 129.367959
 },
 {
  "name": "울산시티병원",
  "address": "울산광역시 북구 산업로 1007",
  "number": "052-280-9000, 9178",
  "Latitude": 35.582894,
  "Longitude": 129.3588552
 },
 {
  "name": "울산중구보건소",
  "address": "울산 중구 외솔큰길 225",
  "number": "052-290-4300",
  "Latitude": 35.5694483,
  "Longitude": 129.3504562
 },
 {
  "name": "동강병원",
  "address": "울산광역시 중구 태화로 239",
  "number": "052-241-1693",
  "Latitude": 35.553663,
  "Longitude": 129.3020349
 },
 {
  "name": "울주군보건소",
  "address": "울산 울주군 삼남읍 서향교1길 67-12 울주군보건소",
  "number": "052-204-2798",
  "Latitude": 35.5583314,
  "Longitude": 129.113771
 },
 {
  "name": "서울산보람병원",
  "address": "울주군 삼남읍 중평로 53",
  "number": "052-255-7114",
  "Latitude": 35.5596168,
  "Longitude": 129.1205746
 },
 {
  "name": "가평군보건소",
  "address": "경기 가평군 가평읍 읍내3리 624-1 ",
  "number": "031-582-2488",
  "Latitude": 37.8253113,
  "Longitude": 127.5165397
 },
 {
  "name": "HJ매그놀리아국제병원",
  "address": "경기도 가평군 설악면 미사리로 267-177 ",
  "number": "031-589-4300",
  "Latitude": 37.6908251,
  "Longitude": 127.5216892
 },
 {
  "name": "고양시덕양구보건소",
  "address": "경기 고양시 덕양구 주교동 206-1(주교제1공영주차장) ",
  "number": "031-8075-4059",
  "Latitude": 37.6549346,
  "Longitude": 126.831035
 },
 {
  "name": "의료법인명지의료재단명지병원",
  "address": "경기 고양시 덕양구 화수로14번길 55",
  "number": "031-810-5114",
  "Latitude": 37.6420879,
  "Longitude": 126.830935
 },
 {
  "name": "과천시보건소",
  "address": "경기 과천시 중앙동 과천시청 관문로 69 (중앙동)",
  "number": "02-2150-3334",
  "Latitude": 37.4291883,
  "Longitude": 126.9876194
 },
 {
  "name": "광명시보건소",
  "address": "경기 광명시 오리로 613",
  "number": "02-2680-2577",
  "Latitude": 37.4556262,
  "Longitude": 126.8783005
 },
 {
  "name": "광명성애병원",
  "address": "경기도 광명시 디지털로 36",
  "number": "02-2680-7339",
  "Latitude": 37.4732445,
  "Longitude": 126.8718849
 },
 {
  "name": "광주시보건소",
  "address": "경기 광주시 경안동 115",
  "number": "031-760-2110",
  "Latitude": 37.4163946,
  "Longitude": 127.2505
 },
 {
  "name": "참조은병원",
  "address": "광주대로 45",
  "number": "1600-9955",
  "Latitude": 37.4109034,
  "Longitude": 127.26023
 },
 {
  "name": "구리시보건소",
  "address": "경기 구리시 인창동 674-3",
  "number": "031-550-8432",
  "Latitude": 37.6045574,
  "Longitude": 127.1450574
 },
 {
  "name": "원진녹색병원",
  "address": "경기도 구리시 동구릉로65",
  "number": "031-550-1111",
  "Latitude": 37.6060922,
  "Longitude": 127.1339736
 },
 {
  "name": "군포시보건소",
  "address": "경기도 군포시 군포로 221, 군포시보건소 감염병대응센터",
  "number": "031-389-4901",
  "Latitude": 37.3331179,
  "Longitude": 126.9259534
 },
 {
  "name": "원광대학교의과대학 산본병원",
  "address": "경기도 군포시 산본로 321",
  "number": "031-390-2345",
  "Latitude": 37.3593764,
  "Longitude": 126.9335943
 },
 {
  "name": "효산의료재단법인 지샘병원",
  "address": "경기도 군포시 군포로 591",
  "number": "031-389-3119",
  "Latitude": 37.3586521,
  "Longitude": 126.9472959
 },
 {
  "name": "기흥구보건소",
  "address": "경기도 용인시 기흥구 신갈로 58번길 11",
  "number": "031-324-6017",
  "Latitude": 37.2725093,
  "Longitude": 127.1070081
 },
 {
  "name": "강남병원",
  "address": "경기도 용인시 기흥구 중부대로 411",
  "number": "031-300-0114",
  "Latitude": 37.2735367,
  "Longitude": 127.1113393
 },
 {
  "name": "용인세브란스병원",
  "address": "용인시 기흥구 동백죽전대로363",
  "number": "1899-1004",
  "Latitude": 37.2721371,
  "Longitude": 127.1521978
 },
 {
  "name": "김포시보건소",
  "address": "경기 김포시 사우중로 108 ",
  "number": "031-5186-3119",
  "Latitude": 37.6235331,
  "Longitude": 126.7227163
 },
 {
  "name": "김포우리병원",
  "address": "경기도 김포시 감암로 11",
  "number": "031-999-1000",
  "Latitude": 37.6323493,
  "Longitude": 126.7107705
 },
 {
  "name": "뉴고려병원",
  "address": "경기도 김포시 김포한강3로 283",
  "number": "1661-7779",
  "Latitude": 37.6409053,
  "Longitude": 126.6602394
 },
 {
  "name": "히즈메디병원",
  "address": "김포시 김포대로 681 ",
  "number": "1588-0223",
  "Latitude": 37.6111798,
  "Longitude": 126.7349638
 },
 {
  "name": "남양주보건소",
  "address": "경기 남양주시 다산동(다산2동) 3159-7 남양주시청제2청사 1~2층",
  "number": "031-590-4454",
  "Latitude": 37.6076675,
  "Longitude": 127.1694658
 },
 {
  "name": "남양주보건소 동부보건센터",
  "address": "경기 남양주시 화도읍 비룡로59",
  "number": "031-590-8515",
  "Latitude": 37.6578222,
  "Longitude": 127.3007017
 },
 {
  "name": "엘병원",
  "address": "경기 남양주시 퇴계원읍 퇴계원로 20 엘병원",
  "number": "031-580-0726",
  "Latitude": 37.6487352,
  "Longitude": 127.1409442
 },
 {
  "name": "동두천시보건소",
  "address": "경기 동두천시 생연2동 714-9 동두천시보건소 ",
  "number": "031-860-3424",
  "Latitude": 37.8965746,
  "Longitude": 127.0517101
 },
 {
  "name": "안양시 만안구보건소",
  "address": "경기 안양시 만안구 안양동(안양6동) 532-1",
  "number": "031-8045-3472",
  "Latitude": 37.385858,
  "Longitude": 126.9327303
 },
 {
  "name": "샘안양병원",
  "address": "경기도 안양시 만안구 삼덕로 9",
  "number": "031-467-9114",
  "Latitude": 37.3934995,
  "Longitude": 126.9245371
 },
 {
  "name": "성남시분당구보건소",
  "address": "경기 성남시 분당구 야탑동(야탑1동) 349 분당보건소",
  "number": "031-729-3990",
  "Latitude": 37.4110097,
  "Longitude": 127.1246119
 },
 {
  "name": "분당차병원",
  "address": "경기도 성남시 분당구 야탑로 59(야탑동)",
  "number": "031-780-5546",
  "Latitude": 37.4102789,
  "Longitude": 127.1254597
 },
 {
  "name": "분당제생병원",
  "address": "경기도 성남시 분당구서현로180번길20(서현동)",
  "number": "031-779-6594",
  "Latitude": 37.3881717,
  "Longitude": 127.1217664
 },
 {
  "name": "성남시수정구보건소",
  "address": "경기 성남시 수정구 신흥동 3435 수정구보건소 218",
  "number": "031-729-3216",
  "Latitude": 37.4443074,
  "Longitude": 127.1441357
 },
 {
  "name": "순천의료재단 정병원",
  "address": "수정구 수정로 76",
  "number": "031-757-8900",
  "Latitude": 37.4398303,
  "Longitude": 127.1290044
 },
 {
  "name": "수원시권선구보건소",
  "address": "경기도 수원시 권선구 호매실로 22-50",
  "number": "031-228-6717",
  "Latitude": 37.2587056,
  "Longitude": 126.9711223
 },
 {
  "name": "시흥시보건소",
  "address": "경기 시흥시 서해안로 1589",
  "number": "1533-3009",
  "Latitude": 37.4092647,
  "Longitude": 126.7555085
 },
 {
  "name": "시흥시화병원",
  "address": "경기도 시흥시 군자천로 381",
  "number": "1811-7000",
  "Latitude": 37.3342544,
  "Longitude": 126.7222734
 },
 {
  "name": "신천연합병원",
  "address": "시흥시 복지로 57",
  "number": "031-310-6527",
  "Latitude": 37.4445521,
  "Longitude": 126.789516
 },
 {
  "name": "센트럴병원",
  "address": "시흥시 공단1대로 237",
  "number": "031-8041-3752,3968",
  "Latitude": 37.3367245,
  "Longitude": 126.7281671
 },
 {
  "name": "정왕보건지소",
  "address": "시흥시 정왕대로233번길 19",
  "number": "1533-3009",
  "Latitude": 37.3468122,
  "Longitude": 126.7400834
 },
 {
  "name": "안산시단원보건소",
  "address": "경기 안산시 단원구 초지동 666-8 안산시 단원보건소",
  "number": "0314816716",
  "Latitude": 37.3207024,
  "Longitude": 126.8152864
 },
 {
  "name": "고려대학교안산병원",
  "address": "경기도 안산시 단원구 적금로 123",
  "number": "031-412-5400",
  "Latitude": 37.3191333,
  "Longitude": 126.8252651
 },
 {
  "name": "의료법인대아의료재단한도병원",
  "address": "경기도 안산시 단원구 선부광장로 103",
  "number": "031-8040-1369",
  "Latitude": 37.334018,
  "Longitude": 126.8076137
 },
 {
  "name": "단원병원",
  "address": "안산시 단원구 원포공원1로 20",
  "number": "031-8040-6600",
  "Latitude": 37.3003343,
  "Longitude": 126.8132315
 },
 {
  "name": "안산시상록수보건소",
  "address": "경기 안산시 상록구 사1동  1584",
  "number": "031-481-5894",
  "Latitude": 37.3009783,
  "Longitude": 126.8449019
 },
 {
  "name": "근로복지공단안산병원",
  "address": "안산시 상록구  구룡로 87",
  "number": "031-500-1770",
  "Latitude": 37.3166128,
  "Longitude": 126.8743722
 },
 {
  "name": "안성시보건소",
  "address": "경기도 안성시 발화대길 21 안성맞춤아트홀(주차장)",
  "number": "031-678-5724",
  "Latitude": 37.0010012,
  "Longitude": 127.2790334
 },
 {
  "name": "경기도의료원 안성병원",
  "address": "경기도 안성시 남파로 95(당왕동)",
  "number": "031-8046-5000",
  "Latitude": 37.0176456,
  "Longitude": 127.2741726
 },
 {
  "name": "안성성모병원",
  "address": "안성시 시장길 58(서인동)",
  "number": "031-675-6007",
  "Latitude": 37.0062179,
  "Longitude": 127.2710329
 },
 {
  "name": "안양시 동안구보건소",
  "address": "경기 안양시 동안구 비산동 1111번지",
  "number": "031-8045-4471",
  "Latitude": 37.3925391,
  "Longitude": 126.9516444
 },
 {
  "name": "한림대학교성심병원",
  "address": "안양시 동안구 관평로 170번길 22",
  "number": "031-380-4088,5975",
  "Latitude": 37.3914308,
  "Longitude": 126.9617537
 },
 {
  "name": "양주시보건소",
  "address": "경기 양주시 유양동 83",
  "number": "031-8082-7777",
  "Latitude": 37.7850751,
  "Longitude": 127.0374005
 },
 {
  "name": "양평군보건소",
  "address": "경기 양평군 양평읍 양근리 마유산로 17번지",
  "number": "031-770-3490",
  "Latitude": 37.4969798,
  "Longitude": 127.4866817
 },
 {
  "name": "양평병원",
  "address": "경기도 양평군 양평읍 중앙로 129",
  "number": "031-770-5119",
  "Latitude": 37.4939802,
  "Longitude": 127.5033376
 },
 {
  "name": "여주시보건소",
  "address": "경기 여주시 여흥로160번길 14",
  "number": "031-887-3064",
  "Latitude": 37.2947421,
  "Longitude": 127.6401456
 },
 {
  "name": "세종여주병원",
  "address": "경기도 여주시 청심로 39",
  "number": "031-880-7700",
  "Latitude": 37.3014144,
  "Longitude": 127.6251858
 },
 {
  "name": "오산시보건소",
  "address": "경기도 오산시 오산동 25",
  "number": "031-8036-6025",
  "Latitude": 37.1596239,
  "Longitude": 127.0776511
 },
 {
  "name": "부천시보건소 부천종합운동장 부설주차장 선별진료소",
  "address": "경기 부천시 길주로 486, 부천종합운동장 부설주차장 C동 1층",
  "number": "032-625-8881~4",
  "Latitude": 37.504939,
  "Longitude": 126.7859443
 },
 {
  "name": "의왕시보건소",
  "address": "경기 의왕시 고천동  108",
  "number": "031-345-3572",
  "Latitude": 37.3437197,
  "Longitude": 126.9720999
 },
 {
  "name": "아가페의료재단 시티병원",
  "address": "의왕시 오전천로 29",
  "number": "031-340-2555",
  "Latitude": 37.3502461,
  "Longitude": 126.9767752
 },
 {
  "name": "의정부시보건소",
  "address": "경기도 의정부시 평화로493번길 24 ",
  "number": "031-870-6011",
  "Latitude": 37.7227451,
  "Longitude": 127.0462556
 },
 {
  "name": "경기도의료원의정부병원",
  "address": "의정부시 흥선로 142",
  "number": "031-828-5143",
  "Latitude": 37.7410385,
  "Longitude": 127.0425242
 },
 {
  "name": "가톨릭대학교 의정부 성모병원 ",
  "address": "의정부시 천보로 271",
  "number": "1661-7500",
  "Latitude": 37.7583561,
  "Longitude": 127.0774459
 },
 {
  "name": "추병원",
  "address": "경기도 의정부시 평화로 650",
  "number": "031-823-8063",
  "Latitude": 37.7499591,
  "Longitude": 127.0450362
 },
 {
  "name": "의정부백병원",
  "address": "경기도 의정부시 금신로  322",
  "number": "031-856-8111",
  "Latitude": 37.7452366,
  "Longitude": 127.0620467
 },
 {
  "name": "의정부을지대학교병원",
  "address": "의정부시 동일로 712(금오동)",
  "number": "031-951-2083",
  "Latitude": 37.7565525,
  "Longitude": 127.0660432
 },
 {
  "name": "이천시보건소",
  "address": "경기 이천시 증포동 152-2",
  "number": "031-644-4011",
  "Latitude": 37.2889554,
  "Longitude": 127.4523668
 },
 {
  "name": "경기도의료원이천병원",
  "address": "경기도 이천시 경충대로 2742",
  "number": "031-630-4200",
  "Latitude": 37.2825934,
  "Longitude": 127.4328154
 },
 {
  "name": "일산서구보건소",
  "address": "경기 고양시 일산서구 일산동 일중로 54",
  "number": "031-8075-4212",
  "Latitude": 37.6843777,
  "Longitude": 126.77588
 },
 {
  "name": "인제대학교일산백병원",
  "address": "경기 고양시 일산서구 주화로 170",
  "number": "031-910-7114",
  "Latitude": 37.6742288,
  "Longitude": 126.750367
 },
 {
  "name": "장안구보건소",
  "address": "경기 수원시 장안구 조원동 888번지",
  "number": "031-228-5717",
  "Latitude": 37.3031937,
  "Longitude": 127.009906
 },
 {
  "name": "성남시중원구보건소",
  "address": "경기 성남시 중원구 상대원1동 269-10",
  "number": "031-729-3930",
  "Latitude": 37.4419311,
  "Longitude": 127.1706498
 },
 {
  "name": "성남중앙병원",
  "address": "중원구 산성대로 476번길 12",
  "number": "1577-7986",
  "Latitude": 37.4527005,
  "Longitude": 127.1620743
 },
 {
  "name": "처인구보건소",
  "address": "경기 용인시 처인구 삼가동 556",
  "number": "031-324-4981",
  "Latitude": 37.240608,
  "Longitude": 127.1772935
 },
 {
  "name": "영문의료재단 다보스병원",
  "address": "처인구 백옥대로 1082번길 18",
  "number": "031-8021-2130",
  "Latitude": 37.2314675,
  "Longitude": 127.2113666
 },
 {
  "name": "용인서울병원",
  "address": "경기도 용인시 처인구 고림로 81 ",
  "number": "031-337-0114",
  "Latitude": 37.2403252,
  "Longitude": 127.2145981
 },
 {
  "name": "파주시보건소",
  "address": "경기 파주시 금촌동(금촌1동) 953-1 파주시보건소 ",
  "number": "031-940-5577",
  "Latitude": 37.756308,
  "Longitude": 126.7738979
 },
 {
  "name": "메디인병원",
  "address": "경기도 파주시 시청로 6",
  "number": "031-943-1191",
  "Latitude": 37.7580017,
  "Longitude": 126.774838
 },
 {
  "name": "팔달구보건소",
  "address": "경기 수원시 팔달구 교동 56-1번지",
  "number": "031-228-7716",
  "Latitude": 37.2713991,
  "Longitude": 127.0124884
 },
 {
  "name": "성빈센트 병원",
  "address": "경기도 수원시 팔달구 중부대로 93 (지동)",
  "number": "1577-8588",
  "Latitude": 37.2784375,
  "Longitude": 127.0278484
 },
 {
  "name": "동수원 병원",
  "address": "경기도 수원시 팔달구 중부대로 165 (우만동)",
  "number": "031-210-0114",
  "Latitude": 37.278441,
  "Longitude": 127.0343254
 },
 {
  "name": "윌스기념병원",
  "address": "경기도 수원시 팔달구 경수대로 437",
  "number": "1577-8382",
  "Latitude": 37.2651153,
  "Longitude": 127.0254773
 },
 {
  "name": "평택시평택보건소",
  "address": "경기 평택시 비전동 850(평택5로 56)",
  "number": "031-8024-5559",
  "Latitude": 36.9907621,
  "Longitude": 127.1118191
 },
 {
  "name": "의료법인 백송의료재단 굿모닝병원",
  "address": "경기도 평택시 중앙로 338",
  "number": "031-5182-7700",
  "Latitude": 36.9906469,
  "Longitude": 127.1205614
 },
 {
  "name": "의료법인 박애의료재단 박애병원",
  "address": "경기도 평택시 평택2로20번길 3 ",
  "number": " 031-650-9219",
  "Latitude": 36.9930038,
  "Longitude": 127.0890655
 },
 {
  "name": "의료법인 양진의료재단 평택성모병원",
  "address": "경기도 평택시 평택로 284",
  "number": "031-1800-8800",
  "Latitude": 36.9994413,
  "Longitude": 127.0795523
 },
 {
  "name": "평택시안중보건지소",
  "address": "경기도 평택시 안중읍 안현로서 9길 14-4",
  "number": "031-8024-8611",
  "Latitude": 36.9776282,
  "Longitude": 126.9233298
 },
 {
  "name": "포천시보건소",
  "address": "경기 포천시 신읍동 164-3 (포천시보건소)",
  "number": "031-538-4484",
  "Latitude": 37.900803,
  "Longitude": 127.201216
 },
 {
  "name": "경기도의료원 포천병원",
  "address": "경기도 포천시 포천로 1648",
  "number": "031-539-9372",
  "Latitude": 37.9031637,
  "Longitude": 127.1981229
 },
 {
  "name": "일심재단우리병원",
  "address": "경기도 포천시 호국로 661",
  "number": "031-542-0222",
  "Latitude": 37.8273748,
  "Longitude": 127.147957
 },
 {
  "name": "하남시보건소",
  "address": "경기도 하남시 신장2동 520",
  "number": "031-790-5917",
  "Latitude": 37.5391091,
  "Longitude": 127.2146082
 },
 {
  "name": "화성시보건소",
  "address": "경기 화성시 향남읍 3.1만세로 1055",
  "number": "031-5189-1200",
  "Latitude": 37.1291446,
  "Longitude": 126.9046066
 },
 {
  "name": "화성시동부보건소",
  "address": "경기 화성시 병점동 391-2",
  "number": "031-5189-1200",
  "Latitude": 37.2042526,
  "Longitude": 127.0348884
 },
 {
  "name": "원광종합병원",
  "address": "경기 화성시 화산북로 21 ",
  "number": "031-8077-7260",
  "Latitude": 37.2091997,
  "Longitude": 127.0077418
 },
 {
  "name": "화성중앙종합병원",
  "address": "경기 화성시 향남읍 발안로 5",
  "number": "031-371-8114",
  "Latitude": 37.1313154,
  "Longitude": 126.9107719
 },
 {
  "name": "한림대학교동탄성심병원",
  "address": "경기 화성시 큰재봉길 7",
  "number": "031-8086-3616,2110",
  "Latitude": 37.2182263,
  "Longitude": 127.0796011
 },
 {
  "name": "화성디에스병원",
  "address": "경기도 화성시 남양읍 시청로160번길 46-13",
  "number": "1600-5982",
  "Latitude": 37.1964083,
  "Longitude": 126.8326419
 },
 {
  "name": "동탄보건소 주차장",
  "address": "경기 화성시 노작로 226-9 ",
  "number": "031-5189-1200",
  "Latitude": 37.2067614,
  "Longitude": 127.0785851
 },
 {
  "name": "화성유일병원",
  "address": "화성시 남양읍 남양로 920번길 6",
  "number": "031-355-0119",
  "Latitude": 37.1963991,
  "Longitude": 126.8056237
 },
 {
  "name": "새봄병원",
  "address": "화성시 꽃내음1길 5-4",
  "number": "031-357-8100",
  "Latitude": 37.1994932,
  "Longitude": 126.8311887
 },
 {
  "name": "영통구보건소",
  "address": "경기 수원시 영통구 영통동 영통로 396",
  "number": "031-228-8785",
  "Latitude": 37.2504343,
  "Longitude": 127.0645477
 },
 {
  "name": "아주대학교병원",
  "address": "수원시 영통구 월드컵로164",
  "number": "031-1688-6114",
  "Latitude": 37.2795318,
  "Longitude": 127.0477406
 },
 {
  "name": "평택시송탄보건소",
  "address": "경기 평택시 서정동 산 12(서정로 295)",
  "number": "031-8024-7325",
  "Latitude": 37.076243,
  "Longitude": 127.0389132
 },
 {
  "name": "박병원",
  "address": "평택시 송탄로 33",
  "number": "031-666-2600",
  "Latitude": 37.0482193,
  "Longitude": 127.0570011
 },
 {
  "name": "일산동구보건소",
  "address": "경기 고양시 일산동구 마두동 1010번지",
  "number": "031-8075-4083",
  "Latitude": 37.6568843,
  "Longitude": 126.7755201
 },
 {
  "name": "국민건강보험공단일산병원",
  "address": "일산동구 일산로100",
  "number": "031-900-0750",
  "Latitude": 37.6454297,
  "Longitude": 126.7929091
 },
 {
  "name": "동국대학교일산불교병원",
  "address": "고양시 일산동구 동국로 27(식사동)",
  "number": "031-961-8013,8010",
  "Latitude": 37.6763007,
  "Longitude": 126.8067038
 },
 {
  "name": "일산복음병원",
  "address": "경기도 고양시 일산동구 고양대로760",
  "number": "031-977-5000",
  "Latitude": 37.6817198,
  "Longitude": 126.7799777
 },
 {
  "name": "수지구보건소",
  "address": "경기도 용인시 수지구 포은대로 435 ",
  "number": "031-324-8451",
  "Latitude": 37.3217914,
  "Longitude": 127.097733
 },
 {
  "name": "남양주풍양보건소",
  "address": "경기 남양주시 진접읍 혜밀예당 1로 30-39",
  "number": "031-590-5371",
  "Latitude": 37.7105754,
  "Longitude": 127.1884869
 },
 {
  "name": "남양주한양병원",
  "address": "경기도 남양주시 오남읍 양지로 47-55 ",
  "number": "031-510-0114",
  "Latitude": 37.6823506,
  "Longitude": 127.20422
 },
 {
  "name": "현대병원",
  "address": "경기도 남양주시 진접읍 봉현로 21 ",
  "number": "031-574-9119",
  "Latitude": 37.7155114,
  "Longitude": 127.179653
 },
 {
  "name": "연천군보건의료원",
  "address": "경기 연천군 전곡읍 은대리 577-36",
  "number": "031-839-4068",
  "Latitude": 38.0233652,
  "Longitude": 127.0612435
 },
 {
  "name": "강릉시보건소",
  "address": "강원 강릉시 내곡동 413 강릉시보건소, 가동 강릉시보건소",
  "number": "033-660-3050",
  "Latitude": 37.7426855,
  "Longitude": 128.8828061
 },
 {
  "name": "강릉아산병원",
  "address": "강원도 강릉시 사천면 방동길 38",
  "number": "033-610-4111",
  "Latitude": 37.8182428,
  "Longitude": 128.8592719
 },
 {
  "name": "강릉동인병원",
  "address": "강원도 강릉시 강릉대로419번길 42",
  "number": "033-651-6161",
  "Latitude": 37.7743397,
  "Longitude": 128.9070484
 },
 {
  "name": "강릉고려병원",
  "address": "강원도 강릉시 옥가로 30",
  "number": "033-649-0333",
  "Latitude": 37.7590037,
  "Longitude": 128.89986
 },
 {
  "name": "강릉의료원",
  "address": "강원도 강릉시 경강로 2007",
  "number": "033-610-1200",
  "Latitude": 37.7494637,
  "Longitude": 128.8888202
 },
 {
  "name": "고성군보건소",
  "address": "강원 고성군 간성읍 수성로 30",
  "number": "033-681-4000",
  "Latitude": 38.3775319,
  "Longitude": 128.4720276
 },
 {
  "name": "동해시보건소",
  "address": "강원 동해시 천곡동 840 보건소 동해시보건소",
  "number": "033-530-2411",
  "Latitude": 37.5227905,
  "Longitude": 129.116683
 },
 {
  "name": "의료법인 동해동인병원",
  "address": "동해시 하평로 26",
  "number": "033-530-0400",
  "Latitude": 37.5301401,
  "Longitude": 129.1073994
 },
 {
  "name": "근로복지공단 동해병원",
  "address": "동해시 하평로 11",
  "number": "033-530-3885",
  "Latitude": 37.5313691,
  "Longitude": 129.1077852
 },
 {
  "name": "삼척시보건소",
  "address": "강원 삼척시 남양동 347-4",
  "number": "033-570-4017",
  "Latitude": 37.443912,
  "Longitude": 129.1721753
 },
 {
  "name": "강원도 삼척의료원",
  "address": "강원도 삼척시 오십천로 418",
  "number": "033-570-7545",
  "Latitude": 37.4398318,
  "Longitude": 129.1633551
 },
 {
  "name": "속초시보건소",
  "address": "속초시 동해대로 4229(생활체육관 주차장 내)",
  "number": "033-639-1531",
  "Latitude": 38.1966052,
  "Longitude": 128.5770237
 },
 {
  "name": "강원도속초의료원",
  "address": "속초시 영랑호반길 3",
  "number": "033-630-6122",
  "Latitude": 38.2164098,
  "Longitude": 128.5885347
 },
 {
  "name": "속초보광병원",
  "address": "속초시 중앙로 11 ",
  "number": "033-639-8557",
  "Latitude": 38.1979798,
  "Longitude": 128.5783566
 },
 {
  "name": "양구군보건소",
  "address": "강원 양구군 양구읍 관공서로 42 양구군보건소",
  "number": "033-481-2400",
  "Latitude": 38.1097784,
  "Longitude": 127.9889697
 },
 {
  "name": "양구성심병원",
  "address": "강원 양구군 양구읍 중심로 160 ",
  "number": "033-480-8800",
  "Latitude": 38.1045016,
  "Longitude": 127.9911494
 },
 {
  "name": "양양군보건소",
  "address": "강원 양양군 양양읍 연창리 203-5 양양군보건소 양양군보건소",
  "number": "033-670-2119",
  "Latitude": 38.0777809,
  "Longitude": 128.6274048
 },
 {
  "name": "영월군보건소",
  "address": "강원 영월군 영월읍 하송로 44 영월군보건소 ",
  "number": "033-370-1800",
  "Latitude": 37.1842043,
  "Longitude": 128.4634341
 },
 {
  "name": "영월의료원",
  "address": "강원 영월군 영월읍 중앙1로 59 영월의료원",
  "number": "033-370-9129",
  "Latitude": 37.1864696,
  "Longitude": 128.4652531
 },
 {
  "name": "원주시보건소",
  "address": "강원 원주시 일산동 211",
  "number": "033-737-4065",
  "Latitude": 37.3515821,
  "Longitude": 127.9467619
 },
 {
  "name": "연세대학교 원주세브란스기독병원",
  "address": "강원 원주시 일산로 20",
  "number": "033-741-1985",
  "Latitude": 37.348469,
  "Longitude": 127.9451839
 },
 {
  "name": "원주의료원",
  "address": "강원 원주시 서원대로 387",
  "number": "033-737-4668",
  "Latitude": 37.3330067,
  "Longitude": 127.9489068
 },
 {
  "name": "인제군보건소",
  "address": "강원 인제군 인제읍 인제로140번길 34",
  "number": "033-461-2425",
  "Latitude": 38.0634793,
  "Longitude": 128.1687081
 },
 {
  "name": "정선군보건소",
  "address": "강원 정선군 정선읍 녹송로 33",
  "number": "033-560-4141",
  "Latitude": 37.3799848,
  "Longitude": 128.6713234
 },
 {
  "name": "근로복지공단정선병원",
  "address": "강원도 정선군 정선읍 봉양1길 145",
  "number": "033-560-7126",
  "Latitude": 37.3830173,
  "Longitude": 128.6587563
 },
 {
  "name": "정선군립병원",
  "address": "강원도 정선군 사북읍 지장천로 727",
  "number": "033-592-3121",
  "Latitude": 37.2260615,
  "Longitude": 128.8264701
 },
 {
  "name": "철원군보건소",
  "address": "강원 철원군 갈말읍 군탄리 960-2",
  "number": "033-450-5950",
  "Latitude": 38.1481314,
  "Longitude": 127.3029023
 },
 {
  "name": "철원병원",
  "address": "강원도 철원군 갈말읍 명성로 208",
  "number": "033-450-3300",
  "Latitude": 38.1502529,
  "Longitude": 127.3077345
 },
 {
  "name": "춘천시보건소",
  "address": "강원 춘천시 우석로 102-2, 춘천종합체육회관 주차장",
  "number": "033-250-4688",
  "Latitude": 37.8633685,
  "Longitude": 127.7556097
 },
 {
  "name": "한림대학교춘천성심병원",
  "address": "강원도 춘천시 삭주로 77",
  "number": "033-240-5815",
  "Latitude": 37.8839706,
  "Longitude": 127.7398959
 },
 {
  "name": "태백시보건소",
  "address": "강원 태백시 태백로 905",
  "number": "033-552-4000",
  "Latitude": 37.1493763,
  "Longitude": 128.9938131
 },
 {
  "name": "근로복지공단태백병원",
  "address": "강원도 태백시 보드미길8",
  "number": "033-580-3119",
  "Latitude": 37.1034236,
  "Longitude": 129.005278
 },
 {
  "name": "홍천군보건소",
  "address": "강원 홍천군 홍천읍 희망리 350 홍천군보건소",
  "number": "033-430-4010",
  "Latitude": 37.6901473,
  "Longitude": 127.8768506
 },
 {
  "name": "홍천아산병원",
  "address": "홍천군 산림공원 1길 17",
  "number": "033-430-5119",
  "Latitude": 37.6906658,
  "Longitude": 127.8946511
 },
 {
  "name": "횡성군보건소",
  "address": "강원 횡성군 횡성읍 횡성로379 횡성군보건소 ",
  "number": "033-340-5707",
  "Latitude": 37.4871296,
  "Longitude": 127.9844504
 },
 {
  "name": "횡성대성병원",
  "address": "강원도 횡성군 횡성읍 횡성로275",
  "number": "033-343-0901",
  "Latitude": 37.4783172,
  "Longitude": 127.9797883
 },
 {
  "name": "평창군보건의료원",
  "address": "강원 평창군 평창읍 노성로 11 평창군보건의료원",
  "number": "033-330-4800",
  "Latitude": 37.3687729,
  "Longitude": 128.390471
 },
 {
  "name": "화천군보건의료원",
  "address": "강원 화천군 화천읍 강변로 111",
  "number": "033-442-4424",
  "Latitude": 38.1075314,
  "Longitude": 127.7091133
 },
 {
  "name": "괴산군보건소",
  "address": "충북 괴산군 괴산읍 동부리 641 괴산군보건소",
  "number": "043-832-4000",
  "Latitude": 36.8080308,
  "Longitude": 127.7965506
 },
 {
  "name": "괴산성모병원",
  "address": "충북 괴산군 괴산읍 임꺽정로 116",
  "number": "043-830-5400",
  "Latitude": 36.8154141,
  "Longitude": 127.7842382
 },
 {
  "name": "단양군보건소",
  "address": "충북 단양군 단양읍 삼봉로 53",
  "number": "043-420-3201",
  "Latitude": 36.9811348,
  "Longitude": 128.3615067
 },
 {
  "name": "보은군보건소",
  "address": "충북 보은군 보은읍 동광길 50",
  "number": "043-540-5619",
  "Latitude": 36.4866197,
  "Longitude": 127.716223
 },
 {
  "name": "보은한양병원",
  "address": "충북 보은군 보은읍 보은로 102",
  "number": "043-544-1500",
  "Latitude": 36.4832783,
  "Longitude": 127.7182865
 },
 {
  "name": "영동군보건소",
  "address": "충북 영동군 영동읍 반곡동길 7",
  "number": "043-740-5612",
  "Latitude": 36.1684685,
  "Longitude": 127.7759821
 },
 {
  "name": "영동병원",
  "address": "충북 영동군 영동읍 대학로 106",
  "number": "043-740-9000",
  "Latitude": 36.1852219,
  "Longitude": 127.7810064
 },
 {
  "name": "옥천군보건소",
  "address": "충북 옥천군 옥천읍 삼양로 8길 10, 옥천군보건소",
  "number": "043-730-2116",
  "Latitude": 36.3043486,
  "Longitude": 127.5700884
 },
 {
  "name": "옥천성모병원",
  "address": "충북 옥천군 옥천읍 성왕로 1195",
  "number": "043-730-7000",
  "Latitude": 36.3137075,
  "Longitude": 127.571949
 },
 {
  "name": "음성군보건소",
  "address": "충북 음성군 음성읍 읍내리 406-4",
  "number": "043-872-2136",
  "Latitude": 36.9285496,
  "Longitude": 127.6887223
 },
 {
  "name": "태성의료재단 제일조은병원",
  "address": "음성군 금왕읍 음성로1230번길 10   ",
  "number": "043-883-8800",
  "Latitude": 36.9974781,
  "Longitude": 127.598521
 },
 {
  "name": "제천시보건소",
  "address": "충청북도 제천시 청전동 110",
  "number": "043-646-2720",
  "Latitude": 37.149082,
  "Longitude": 128.2159946
 },
 {
  "name": "제천 서울병원",
  "address": "충청북도 제천시 숭문로 57",
  "number": "043-642-7609",
  "Latitude": 37.1386904,
  "Longitude": 128.2062186
 },
 {
  "name": "명지병원(제천)",
  "address": "충북 제천시 내토로 991",
  "number": "043-640-8114",
  "Latitude": 37.1633515,
  "Longitude": 128.2339864
 },
 {
  "name": "증평군보건소",
  "address": "충북 증평군 증평읍 내성리 57-2 증평군보건소",
  "number": "043-835-4220",
  "Latitude": 36.7744394,
  "Longitude": 127.5867528
 },
 {
  "name": "진천군보건소",
  "address": "충북 진천군 진천읍 벽암리 570 진천군보건소 본관",
  "number": "043-539-7771",
  "Latitude": 36.8605735,
  "Longitude": 127.4396112
 },
 {
  "name": "건명의료재단 진천성모병원",
  "address": "진천읍 중앙북로 36",
  "number": "043-533-1710",
  "Latitude": 36.858312,
  "Longitude": 127.4406201
 },
 {
  "name": "청주시상당보건소",
  "address": "충청북도 청주시 상당구 남일면 단재로 480",
  "number": "043-201-3121",
  "Latitude": 36.588251,
  "Longitude": 127.505309
 },
 {
  "name": "청주한국병원",
  "address": "충청북도 청주시 상당구 단재로 106",
  "number": "043-222-7000",
  "Latitude": 36.6196583,
  "Longitude": 127.4963221
 },
 {
  "name": "청주효성병원",
  "address": "충청북도 청주시 상당구 쇠내로 16",
  "number": "043-221-5000",
  "Latitude": 36.6244467,
  "Longitude": 127.4955285
 },
 {
  "name": "청주시흥덕보건소",
  "address": "충북 청주시 흥덕구 대농로88(흥덕보건소)",
  "number": "043-201-3342",
  "Latitude": 36.643276,
  "Longitude": 127.4264358
 },
 {
  "name": "한마음의료재단하나병원",
  "address": "충북 청주시 흥덕구 2순환로 1262",
  "number": "043-230-6191",
  "Latitude": 36.6235655,
  "Longitude": 127.4301957
 },
 {
  "name": "베스티안병원",
  "address": "충청북도 흥덕구 오송읍 오송생명1로 191",
  "number": "043-904-8711",
  "Latitude": 36.6363751,
  "Longitude": 127.31789
 },
 {
  "name": "청주시서원보건소",
  "address": "충북 청주시 서원구 사직동(사직1동) 888 서원구청 지하1층 서원보건소",
  "number": "043-201-3207, 3208",
  "Latitude": 36.6374278,
  "Longitude": 127.4694055
 },
 {
  "name": "충주시보건소",
  "address": "충북 충주시 사직산22길 11, 충주시보건소 선별진료소",
  "number": "043-850-3415",
  "Latitude": 36.9713072,
  "Longitude": 127.928821
 },
 {
  "name": "건국대학교충주병원",
  "address": "충북 충주시 국원대로82",
  "number": "043-840-6513",
  "Latitude": 36.9789554,
  "Longitude": 127.9288846
 },
 {
  "name": "충주의료원",
  "address": "충북 충주시 안림로239-50",
  "number": "043-871-0118",
  "Latitude": 36.9798103,
  "Longitude": 127.9707484
 },
 {
  "name": "청주시청원보건소",
  "address": "충청북도 청주시 청원구 오창읍 각리 639-1",
  "number": "043-201-3442",
  "Latitude": 36.7100994,
  "Longitude": 127.4307484
 },
 {
  "name": "계룡시보건소",
  "address": "충남 계룡시 금암동 10-5 계룡시보건소",
  "number": "042-840-3507",
  "Latitude": 36.2730578,
  "Longitude": 127.25009
 },
 {
  "name": "공주시보건소",
  "address": "충청남도 공주시 봉황로 123",
  "number": "041-840-8600",
  "Latitude": 36.4563591,
  "Longitude": 127.1206645
 },
 {
  "name": "공주의료원",
  "address": "충청남도 공주시 무령로 77",
  "number": "041-962-1111",
  "Latitude": 36.45934,
  "Longitude": 127.1266693
 },
 {
  "name": "금산군보건소",
  "address": "충남 금산군 금산읍 중도리 203-1  금산군보건소",
  "number": "041-751-6157",
  "Latitude": 36.1121092,
  "Longitude": 127.4920434
 },
 {
  "name": "논산시보건소",
  "address": "충남 논산시 관촉동(취암동) 327-2",
  "number": "041-746-8091",
  "Latitude": 36.1984565,
  "Longitude": 127.0966665
 },
 {
  "name": "의료법인백제병원",
  "address": "충남 논산시 시민로294번길 14",
  "number": "041-730-8888",
  "Latitude": 36.1923478,
  "Longitude": 127.0943895
 },
 {
  "name": "당진시보건소",
  "address": "충청남도 당진시 시청1로 1",
  "number": "041-360-6004",
  "Latitude": 36.8909786,
  "Longitude": 126.6391943
 },
 {
  "name": "당진종합병원",
  "address": "당진시 반촌로 5-15",
  "number": "041-357-0100",
  "Latitude": 36.9044154,
  "Longitude": 126.6847755
 },
 {
  "name": "보령시보건소",
  "address": "충남 보령시 남포면 보령남로 234",
  "number": "041-930-0900",
  "Latitude": 36.3244623,
  "Longitude": 126.6024081
 },
 {
  "name": "보령아산병원",
  "address": "보령시 죽성로 136",
  "number": "041-930-5651",
  "Latitude": 36.3805499,
  "Longitude": 126.6232855
 },
 {
  "name": "부여군보건소",
  "address": "충청남도 부여군 부여읍 성왕로 205",
  "number": "041-830-8600",
  "Latitude": 36.2795751,
  "Longitude": 126.9186989
 },
 {
  "name": "건양대학교 부여병원",
  "address": "부여군 부여읍 계백로 200",
  "number": "041-837-1200",
  "Latitude": 36.275721,
  "Longitude": 126.9010699
 },
 {
  "name": "성요셉연합의원",
  "address": "부여군 부여읍 사비로 78",
  "number": "041-835-7582",
  "Latitude": 36.279468,
  "Longitude": 126.9108915
 },
 {
  "name": "서산시보건소",
  "address": "충남 서산시 예천동(석남동) 496-1 서산시보건소",
  "number": "041-661-8100",
  "Latitude": 36.7634423,
  "Longitude": 126.4636144
 },
 {
  "name": "충청남도서산의료원",
  "address": "충청남도 서산시 중앙로 149",
  "number": "041-689-7119",
  "Latitude": 36.7754103,
  "Longitude": 126.4653268
 },
 {
  "name": "서천군보건소",
  "address": "충남 서천군 서천읍 군사리 799 서천군보건소",
  "number": "041-950-6940",
  "Latitude": 36.082321,
  "Longitude": 126.689732
 },
 {
  "name": "서해병원",
  "address": "충남 서천군 서천읍 서천로 184",
  "number": "041-951-8282",
  "Latitude": 36.0844803,
  "Longitude": 126.6876312
 },
 {
  "name": "아산시보건소",
  "address": "충남 아산시 남부로 370-24(이순신종합운동장 10번주차장)",
  "number": "1899-7425",
  "Latitude": 36.7681453,
  "Longitude": 127.0212148
 },
 {
  "name": "아산충무병원",
  "address": "충남 아산시 문화로 381 ",
  "number": "041-536-6666",
  "Latitude": 36.7792199,
  "Longitude": 127.0200411
 },
 {
  "name": "현대병원",
  "address": "충남 아산시 시민로 388",
  "number": "041-546-3636",
  "Latitude": 36.7830692,
  "Longitude": 127.0010239
 },
 {
  "name": "세종특별자치시보건소",
  "address": "세종특별자치시 조치원읍 대첩로 32",
  "number": "044-301-2840",
  "Latitude": 36.5963252,
  "Longitude": 127.2928252
 },
 {
  "name": "예산군보건소",
  "address": "충남 예산군 예산읍 군청로 22 ",
  "number": "041-339-6060",
  "Latitude": 36.679211,
  "Longitude": 126.845682
 },
 {
  "name": "예산종합병원",
  "address": "충남 예산군 예산읍 금오대로 94",
  "number": "041-330-4000",
  "Latitude": 36.6910697,
  "Longitude": 126.8377044
 },
 {
  "name": "천안시서북구보건소",
  "address": "충남 천안시 서북구 번영로 156  천안시청 봉서홀 아래 필로티",
  "number": "041-521-2661",
  "Latitude": 36.8151122,
  "Longitude": 127.1138884
 },
 {
  "name": "의료법인 영서의료재단 천안충무병원",
  "address": "충청남도 천안시 서북구 다가말3길 8",
  "number": "041-570-7555",
  "Latitude": 36.7973471,
  "Longitude": 127.1315479
 },
 {
  "name": "충청남도천안의료원",
  "address": "충청남도 천안시 동남구 충절로 537",
  "number": "041-570-7033",
  "Latitude": 36.7913954,
  "Longitude": 127.1682678
 },
 {
  "name": "천안우리병원",
  "address": "충청남도 천안시 동남구 남부대로 350 (청당동",
  "number": "041-590-9000",
  "Latitude": 36.7809592,
  "Longitude": 127.1557958
 },
 {
  "name": "천안시동남구보건소",
  "address": "충남 천안시 버들로34",
  "number": "041-521-2079",
  "Latitude": 36.8077002,
  "Longitude": 127.1531741
 },
 {
  "name": "홍성군보건소",
  "address": "충남 홍성군 홍성읍 문화로 106",
  "number": "041-632-2588",
  "Latitude": 36.5967473,
  "Longitude": 126.6629255
 },
 {
  "name": "홍성의료원",
  "address": "충남 홍성군 홍성읍 조양로 224",
  "number": "041-630-6011",
  "Latitude": 36.5988023,
  "Longitude": 126.6743322
 },
 {
  "name": "청양군보건의료원",
  "address": "충남 청양군 청양읍 칠갑산로 7길 54",
  "number": "041-940-4515",
  "Latitude": 36.4551521,
  "Longitude": 126.8049308
 },
 {
  "name": "태안군보건의료원",
  "address": "충남 태안군 태안읍 평천리 698-6",
  "number": "041-671-5224",
  "Latitude": 36.7519439,
  "Longitude": 126.3229392
 },
 {
  "name": "고창군보건소",
  "address": "전북 고창군 고창읍 율계리 101(전봉준로 90)",
  "number": "063-560-8716",
  "Latitude": 35.4437249,
  "Longitude": 126.6832886
 },
 {
  "name": "고창병원",
  "address": "전북 고창군 고창읍 화신1길 9",
  "number": "063-560-5600",
  "Latitude": 35.4364207,
  "Longitude": 126.693663
 },
 {
  "name": "군산시보건소",
  "address": "전북 군산시 수송동 851-1",
  "number": "063-463-4000",
  "Latitude": 35.9646643,
  "Longitude": 126.7202177
 },
 {
  "name": "군산의료원",
  "address": "전라북도 군산시 의료원로27",
  "number": "063-472-5119",
  "Latitude": 35.9548898,
  "Longitude": 126.7119167
 },
 {
  "name": "동군산병원",
  "address": "전라북도 군산시 조촌로 149",
  "number": "063-440-0300",
  "Latitude": 35.9773651,
  "Longitude": 126.7370947
 },
 {
  "name": "김제시보건소",
  "address": "전북 김제시 요촌동 423-2",
  "number": "063-547-4000",
  "Latitude": 35.8008115,
  "Longitude": 126.8833101
 },
 {
  "name": "남원시보건소",
  "address": "전북 남원시 조산동(금동) 455 남원시보건소",
  "number": "063-625-1339",
  "Latitude": 35.3976924,
  "Longitude": 127.3643521
 },
 {
  "name": "부안군보건소",
  "address": "전북 부안군 부안읍 봉덕리 551-2",
  "number": "063-580-3062",
  "Latitude": 35.7228849,
  "Longitude": 126.7359103
 },
 {
  "name": "부안성모병원",
  "address": "전북 부안군 부안읍 오정2길 24",
  "number": "063-581-5100",
  "Latitude": 35.7246989,
  "Longitude": 126.7344282
 },
 {
  "name": "완주군보건소",
  "address": "전북 완주군 삼례읍 삼봉8로 10-10 완주군보건소 ",
  "number": "063-290-3015",
  "Latitude": 35.9219102,
  "Longitude": 127.1223236
 },
 {
  "name": "익산시보건소",
  "address": "전북 익산시 무왕로 975 ",
  "number": "063-859-7487",
  "Latitude": 35.9592947,
  "Longitude": 126.9671608
 },
 {
  "name": "원광대학교병원",
  "address": "전북 익산시 무왕로 895",
  "number": "063-859-1169",
  "Latitude": 35.9592947,
  "Longitude": 126.9671608
 },
 {
  "name": "익산병원",
  "address": "전북 익산시 무왕로 969",
  "number": "063-840-9107",
  "Latitude": 35.9592947,
  "Longitude": 126.9671608
 },
 {
  "name": "대자인병원",
  "address": "전주시 덕진구 견훤로 390",
  "number": "063-240-2000",
  "Latitude": 35.8459773,
  "Longitude": 127.1533607
 },
 {
  "name": "전주병원",
  "address": "전주시 완산구 한두평3길 13",
  "number": "063-220-7280",
  "Latitude": 35.81532,
  "Longitude": 127.1247526
 },
 {
  "name": "호성전주병원",
  "address": "전주시 덕진구 동부대로 895",
  "number": "063-240-8894",
  "Latitude": 35.8654304,
  "Longitude": 127.1479175
 },
 {
  "name": "화산선별진료소",
  "address": "전주시 완산구 백제대로 310",
  "number": "063-281-6200",
  "Latitude": 35.8213814,
  "Longitude": 127.1242777
 },
 {
  "name": "정읍시보건소",
  "address": "전북 정읍시 수성동 958-2",
  "number": "063-539-6112",
  "Latitude": 35.578123,
  "Longitude": 126.8547137
 },
 {
  "name": "정읍아산병원",
  "address": "전북 정읍시 충정로 606-22 ",
  "number": "063-530-6230",
  "Latitude": 35.5889362,
  "Longitude": 126.8239387
 },
 {
  "name": "진안군보건소",
  "address": "전북 진안군 진안읍 진무로 1189 진안보건소 진안군보건소",
  "number": "063-430-8560",
  "Latitude": 35.7971892,
  "Longitude": 127.4348928
 },
 {
  "name": "진안군의료원",
  "address": "진안군 진안읍 진무로 1145",
  "number": "063-430-7119",
  "Latitude": 35.7844438,
  "Longitude": 127.4309183
 },
 {
  "name": "무주군보건의료원",
  "address": "전북 무주군 무주읍 한풍루로 413",
  "number": "063-320-8360",
  "Latitude": 36.0058824,
  "Longitude": 127.6717091
 },
 {
  "name": "순창군보건의료원",
  "address": "전북 순창군 순창읍 교성로 135",
  "number": "063-650-5384,5352",
  "Latitude": 35.3707575,
  "Longitude": 127.1367853
 },
 {
  "name": "임실군보건의료원",
  "address": "전북 임실군 임실읍 이도리 270-8 임실군 보건의료원 (270-8번지)",
  "number": "063-640-3391,3119",
  "Latitude": 35.6124432,
  "Longitude": 127.2870206
 },
 {
  "name": "장수군보건의료원",
  "address": "전북 장수군 장수읍 장수리 425 장수보건의료원",
  "number": "063-350-2662",
  "Latitude": 35.6545534,
  "Longitude": 127.519664
 },
 {
  "name": "강진군보건소",
  "address": "전남 강진군 강진읍 목리길 11",
  "number": "061-430-5256",
  "Latitude": 34.6381127,
  "Longitude": 126.7754739
 },
 {
  "name": "강진의료원",
  "address": "전남 강진군 강진읍 탐진로 5",
  "number": "061-433-2167",
  "Latitude": 34.6372553,
  "Longitude": 126.757457
 },
 {
  "name": "고흥군보건소",
  "address": "전라남도 고흥군 고흥로 1892-67",
  "number": "061-830-6688",
  "Latitude": 34.6146565,
  "Longitude": 127.2987193
 },
 {
  "name": "고흥종합병원",
  "address": "전남 고흥군 고흥읍 고흥로 1935",
  "number": "061-830-3119",
  "Latitude": 34.6210043,
  "Longitude": 127.2939397
 },
 {
  "name": "녹동현대병원",
  "address": "전남 고흥군 도양읍 차경구렁목길 215",
  "number": "061-840-1119",
  "Latitude": 34.5465248,
  "Longitude": 127.1457469
 },
 {
  "name": "광양시보건소",
  "address": "전남 광양시 광양읍 인덕로 1100, 광양시보건소",
  "number": "061-797-4011",
  "Latitude": 34.980968,
  "Longitude": 127.5836199
 },
 {
  "name": "광양사랑병원",
  "address": "전라남도 광양시 공영로 71",
  "number": "061-797-7119",
  "Latitude": 34.9361515,
  "Longitude": 127.6970766
 },
 {
  "name": "나주시보건소",
  "address": "전남 나주시 이창동 740-1 ",
  "number": "061-339-4744",
  "Latitude": 34.9951951,
  "Longitude": 126.7081686
 },
 {
  "name": "나주종합병원",
  "address": "전남 나주시 영산로 5419",
  "number": "061-330-6112",
  "Latitude": 35.0365136,
  "Longitude": 126.7214532
 },
 {
  "name": "담양군보건소",
  "address": "전남 담양군 담양읍 만성리 135",
  "number": "061-380-3967",
  "Latitude": 35.3250431,
  "Longitude": 126.9812927
 },
 {
  "name": "담양 사랑병원",
  "address": "담양군 담양읍 천변7길 19",
  "number": "061-380-9119",
  "Latitude": 35.3152638,
  "Longitude": 126.982747
 },
 {
  "name": "목포시보건소",
  "address": "전남 목포시 산정동 1676 ",
  "number": "061-270-4000",
  "Latitude": 34.8042563,
  "Longitude": 126.373707
 },
 {
  "name": "목포한국병원",
  "address": "전남 목포시 영산로 483",
  "number": "061-270-5900",
  "Latitude": 34.8091621,
  "Longitude": 126.4163944
 },
 {
  "name": "목포기독병원",
  "address": "전남 목포시 백년대로 303",
  "number": "061-260-7776",
  "Latitude": 34.804445,
  "Longitude": 126.4206723
 },
 {
  "name": "목포중앙병원",
  "address": "전남 목포시 영산로 623",
  "number": "061-280-3167",
  "Latitude": 34.8212302,
  "Longitude": 126.4210798
 },
 {
  "name": "목포시의료원",
  "address": "전남 목포시 이로로 18",
  "number": "061-260-6359",
  "Latitude": 34.8041235,
  "Longitude": 126.4053521
 },
 {
  "name": "세안종합병원",
  "address": "전남 목포시 고하대로 795-2",
  "number": "061-260-6666",
  "Latitude": 34.8170249,
  "Longitude": 126.3802509
 },
 {
  "name": "전남중앙병원",
  "address": "전남 목포시 고하대로 724",
  "number": "061-260-3555",
  "Latitude": 34.8104844,
  "Longitude": 126.375908
 },
 {
  "name": "무안군보건소",
  "address": "전남 무안군 무안읍 성동리 712-1",
  "number": "061-450-5023",
  "Latitude": 34.9903067,
  "Longitude": 126.4819802
 },
 {
  "name": "대송의료재단 무안병원",
  "address": "전남 무안군 무안읍 몽탄로 65",
  "number": "061-450-3119",
  "Latitude": 34.9914382,
  "Longitude": 126.4891531
 },
 {
  "name": "보성군보건소",
  "address": "전남 보성군 보성읍 보성리 827",
  "number": "010-3779-5157",
  "Latitude": 34.7700376,
  "Longitude": 127.0795003
 },
 {
  "name": "보성아산병원",
  "address": "전라남도 보성군 미력면 가평길 36-17",
  "number": "061-850-3606",
  "Latitude": 34.7755385,
  "Longitude": 127.1051557
 },
 {
  "name": "벌교삼호병원",
  "address": "보성군 벌교읍 남하로 12",
  "number": "061-859-5051",
  "Latitude": 34.83369,
  "Longitude": 127.3459825
 },
 {
  "name": "순천시보건소",
  "address": "전남 순천시 석현동 36-1",
  "number": "061-749-",
  "Latitude": 34.966518,
  "Longitude": 127.4854001
 },
 {
  "name": "순천 성가롤로병원",
  "address": "전라남도 순천시 순광로 221",
  "number": "061-720-2040",
  "Latitude": 34.9642662,
  "Longitude": 127.5428763
 },
 {
  "name": "순천의료원",
  "address": "전라남도 순천시 서문성터길 2",
  "number": "061-759-9147",
  "Latitude": 34.9581335,
  "Longitude": 127.4834761
 },
 {
  "name": "순천병원",
  "address": "전라남도 순천시 조례1길 24(조례동)",
  "number": "061-720-7126",
  "Latitude": 34.9608961,
  "Longitude": 127.5249021
 },
 {
  "name": "신안군보건소",
  "address": "전남 신안군 압해읍 천사로 1004",
  "number": "061-240-8084",
  "Latitude": 34.8333863,
  "Longitude": 126.3511946
 },
 {
  "name": "여수시보건소",
  "address": "전남 여수시 학동 213 여수시 보건소",
  "number": "061-659-4248",
  "Latitude": 34.7593666,
  "Longitude": 127.6606341
 },
 {
  "name": "여천전남병원",
  "address": "전남  여수시 무선로 95",
  "number": "061-690-6196,6661",
  "Latitude": 34.7690003,
  "Longitude": 127.6542545
 },
 {
  "name": "여수전남병원",
  "address": "전남 여수시 좌수영로 49(광무동,전남병원)",
  "number": "061-640-7127,7130",
  "Latitude": 34.7468474,
  "Longitude": 127.7272088
 },
 {
  "name": "여수한국병원",
  "address": "여수시 여천체육공원길 10",
  "number": "061-689-9119,9262",
  "Latitude": 34.7612543,
  "Longitude": 127.6750525
 },
 {
  "name": "여수제일병원",
  "address": "여수시 쌍봉로 70",
  "number": "061-689-8101,8846",
  "Latitude": 34.7660227,
  "Longitude": 127.6636158
 },
 {
  "name": "영광군보건소",
  "address": "전라남도 영광군 영광읍 남천리 326-5",
  "number": "061-350-5552",
  "Latitude": 35.2743887,
  "Longitude": 126.5042012
 },
 {
  "name": "영광종합병원",
  "address": "전남 영광군 영광읍 와룡로 3",
  "number": "061-350-8129",
  "Latitude": 35.2844251,
  "Longitude": 126.4989075
 },
 {
  "name": "영광기독병원",
  "address": "전남 영광군 영광읍 신남로 265",
  "number": "061-350-3119",
  "Latitude": 35.2749984,
  "Longitude": 126.5110264
 },
 {
  "name": "영암군보건소",
  "address": "전남 영암군 영암읍 오리정길 39",
  "number": "061-470-6580",
  "Latitude": 34.7951587,
  "Longitude": 126.7039514
 },
 {
  "name": "장흥군보건소",
  "address": "전남 장흥군 장흥읍 흥성로 49",
  "number": "061-860-6481",
  "Latitude": 34.6765124,
  "Longitude": 126.9082131
 },
 {
  "name": "장흥종합병원",
  "address": "장흥군 장흥읍 흥성로 92",
  "number": "061-862-8300",
  "Latitude": 34.6783825,
  "Longitude": 126.9125119
 },
 {
  "name": "진도군보건소",
  "address": "전남 진도군 진도읍 남동리 776-26번지",
  "number": "061-540-6054",
  "Latitude": 34.4803403,
  "Longitude": 126.2629491
 },
 {
  "name": "진도한국병원",
  "address": "전라남도 진도군 남문길 48",
  "number": "061-542-7575",
  "Latitude": 34.482432,
  "Longitude": 126.2641881
 },
 {
  "name": "함평군보건소",
  "address": "전남 함평군 함평읍 기각리 253",
  "number": "061-320-2446",
  "Latitude": 35.0620723,
  "Longitude": 126.5243451
 },
 {
  "name": "함평성심병원",
  "address": "전남 함평군 함평읍 영수길 132",
  "number": "061-324-0001",
  "Latitude": 35.0621885,
  "Longitude": 126.520196
 },
 {
  "name": "해남군보건소",
  "address": "전라남도 해남군 해남읍 해남로 46",
  "number": "061-531-3745",
  "Latitude": 34.5692055,
  "Longitude": 126.6167614
 },
 {
  "name": "해남종합병원",
  "address": "전라남도 해남군 해남읍 해남로 45",
  "number": "061-530-0119",
  "Latitude": 34.5716031,
  "Longitude": 126.6130203
 },
 {
  "name": "해남우리종합병원",
  "address": "전라남도 해남군 옥천면 해남로 597",
  "number": "061-530-7119",
  "Latitude": 34.5844659,
  "Longitude": 126.6470175
 },
 {
  "name": "화순군보건소",
  "address": "전남 화순군 화순읍 삼천리 719번지",
  "number": "061-379-5341",
  "Latitude": 35.0572616,
  "Longitude": 126.9822038
 },
 {
  "name": "전남화순대학교병원",
  "address": "전남 화순군 화순읍 서양로 322",
  "number": "061-379-8558",
  "Latitude": 35.060188,
  "Longitude": 127.0023323
 },
 {
  "name": "화순성심병원",
  "address": "전남 화순군 화순읍 만연로 31",
  "number": "061-370-9114",
  "Latitude": 35.0584176,
  "Longitude": 126.989907
 },
 {
  "name": "곡성군보건의료원",
  "address": "전라남도 곡성군 곡성읍 곡성로 854",
  "number": "061-360-8945",
  "Latitude": 35.2585523,
  "Longitude": 127.2736037
 },
 {
  "name": "곡성사랑병원",
  "address": "전남 곡성군 곡성읍 곡성로 761",
  "number": "061-360-6008",
  "Latitude": 35.2763301,
  "Longitude": 127.2882945
 },
 {
  "name": "구례군보건의료원",
  "address": "전남 구례군 구례읍 동편제길 30",
  "number": "061-780-2673",
  "Latitude": 35.2159325,
  "Longitude": 127.4614696
 },
 {
  "name": "구례병원",
  "address": "구례군 구례읍 동편제길 4",
  "number": "061-780-3231",
  "Latitude": 35.2159901,
  "Longitude": 127.463487
 },
 {
  "name": "완도군보건의료원",
  "address": "전남 완도군 완도읍 죽청리 483-8 완도보건의료원 본관",
  "number": "061-550-6767",
  "Latitude": 34.3362182,
  "Longitude": 126.7313493
 },
 {
  "name": "대성병원",
  "address": "완도군읍 청해진동로 63",
  "number": "061-553-4567",
  "Latitude": 34.3170561,
  "Longitude": 126.7356881
 },
 {
  "name": "장성군보건소",
  "address": "전남 장성군 장성읍 청운 11길 13",
  "number": "061-390-7173",
  "Latitude": 35.3045128,
  "Longitude": 126.7825232
 },
 {
  "name": "장성병원",
  "address": "전남 장성군 장성읍 역전로 171",
  "number": "061-390-9000",
  "Latitude": 35.3058474,
  "Longitude": 126.7836589
 },
 {
  "name": "경산시보건소",
  "address": "경상북도 경산시 중방동 708-5 (경산시보건소)",
  "number": "053-810-6363",
  "Latitude": 35.8250306,
  "Longitude": 128.7433162
 },
 {
  "name": "경산중앙병원",
  "address": "경북 경산시 경안로 11",
  "number": "053-715-0119",
  "Latitude": 35.8090928,
  "Longitude": 128.7401646
 },
 {
  "name": "세명병원",
  "address": "경북 경산시 경안로 208",
  "number": "053-819-8500",
  "Latitude": 35.8260728,
  "Longitude": 128.7372057
 },
 {
  "name": "경주시보건소",
  "address": "경북 경주시 황성공원로 30",
  "number": "054-760-2080",
  "Latitude": 35.8598711,
  "Longitude": 129.2186253
 },
 {
  "name": "동국대 경주병원",
  "address": " 경북 경주시 동대로 87  ",
  "number": "054-748-9300",
  "Latitude": 35.8583073,
  "Longitude": 129.1954409
 },
 {
  "name": "고령군보건소",
  "address": "경북 고령군 대가야읍 지산리 232-8 고령군보건소",
  "number": "054-954-1300",
  "Latitude": 35.7251915,
  "Longitude": 128.2648663
 },
 {
  "name": "고령영생병원",
  "address": "경북 고령군 대가야읍 중앙로33",
  "number": "054-955-2661",
  "Latitude": 35.7300901,
  "Longitude": 128.2721327
 },
 {
  "name": "구미보건소",
  "address": "경북 구미시 선산대로 111",
  "number": "054-480-7837",
  "Latitude": 36.1399149,
  "Longitude": 128.3459791
 },
 {
  "name": "순천향대학교구미병원",
  "address": "경상북도 구미시 1공단로 179",
  "number": "054-468-9114",
  "Latitude": 36.1030929,
  "Longitude": 128.3826739
 },
 {
  "name": "구미차병원",
  "address": "경상북도 구미시 신시로10길 12 ",
  "number": "054-450-9367",
  "Latitude": 36.1147524,
  "Longitude": 128.3407379
 },
 {
  "name": "구미강동병원",
  "address": "경북 구미시 인동20길 46",
  "number": "1599-9669",
  "Latitude": 36.0961415,
  "Longitude": 128.4228503
 },
 {
  "name": "군위군보건소",
  "address": "경북 군위군 군위읍 군청로 70 군위군보건소 ",
  "number": "054-380-7447",
  "Latitude": 36.2293427,
  "Longitude": 128.5699078
 },
 {
  "name": "김천시보건소",
  "address": "경북 김천시 신음동 1284 ",
  "number": "054-433-4000",
  "Latitude": 36.139828,
  "Longitude": 128.1136723
 },
 {
  "name": "김천제일병원",
  "address": "경북 김천시 신음1길 12 ",
  "number": "054-420-9300",
  "Latitude": 36.1353472,
  "Longitude": 128.1187424
 },
 {
  "name": "김천의료원",
  "address": "경북 김천시 모암길 24 ",
  "number": "054-429-8114",
  "Latitude": 36.1226447,
  "Longitude": 128.1264564
 },
 {
  "name": "문경시보건소",
  "address": "경북 문경시 점촌동(점촌1동) 232 문경시보건소",
  "number": "054-550-8048",
  "Latitude": 36.5961618,
  "Longitude": 128.1974506
 },
 {
  "name": "문경제일병원",
  "address": "경북 문경시 당교3길 25",
  "number": "054-550-7700",
  "Latitude": 36.5843256,
  "Longitude": 128.1891835
 },
 {
  "name": "문경중앙병원",
  "address": "경북 문경시 중앙로 117-18 ",
  "number": " 054-555-2011  ",
  "Latitude": 36.5959632,
  "Longitude": 128.1990696
 },
 {
  "name": "봉화군보건소",
  "address": "경북 봉화군 봉화읍 봉화로1203 봉화군보건소",
  "number": "054-673-4000",
  "Latitude": 36.8905074,
  "Longitude": 128.7421216
 },
 {
  "name": "봉화해성병원",
  "address": "봉화군 보밑길3 봉화해성병원",
  "number": "054-674-0011",
  "Latitude": 36.8916206,
  "Longitude": 128.7333926
 },
 {
  "name": "상주시보건소",
  "address": "경북 상주시 무양동 33-4",
  "number": "054-535-4000",
  "Latitude": 36.4166614,
  "Longitude": 128.1500526
 },
 {
  "name": "상주적십자병원",
  "address": "경북 상주시 상서문로 53",
  "number": "054-534-3501",
  "Latitude": 36.4144603,
  "Longitude": 128.1551675
 },
 {
  "name": "상주성모병원",
  "address": "경북 상주시 냉림서성길 7",
  "number": "054-530-7123",
  "Latitude": 36.420796,
  "Longitude": 128.1599753
 },
 {
  "name": "구미시선산보건소",
  "address": "경북 구미시 선산읍 선주로121",
  "number": "054-480-4130",
  "Latitude": 36.2442194,
  "Longitude": 128.3000461
 },
 {
  "name": "성주군보건소",
  "address": "경상북도 성주군 성주읍 성밖숲길 12",
  "number": "054-930-8128",
  "Latitude": 35.9171466,
  "Longitude": 128.278978
 },
 {
  "name": "안동시보건소",
  "address": "경북 안동시 북문동(중구동) 58 안동시보건소",
  "number": "054-840-5999,5917",
  "Latitude": 36.5670215,
  "Longitude": 128.7303015
 },
 {
  "name": "안동병원",
  "address": "경북 안동시 앙실로 11 (수상동)",
  "number": "054-840-1613",
  "Latitude": 36.5471395,
  "Longitude": 128.7008616
 },
 {
  "name": "안동성소병원",
  "address": "경북 안동시 서동문로 99 ",
  "number": "054-850-8114",
  "Latitude": 36.5673945,
  "Longitude": 128.7228393
 },
 {
  "name": "영덕군보건소",
  "address": "경북 영덕군 영덕읍 군청길 53",
  "number": "054-730-6894",
  "Latitude": 36.4143635,
  "Longitude": 129.3693171
 },
 {
  "name": "영덕아산병원",
  "address": "영덕읍  영덕로 1621",
  "number": "054-730-0119",
  "Latitude": 36.4205134,
  "Longitude": 129.3792855
 },
 {
  "name": "영양군보건소",
  "address": "경상북도 영양군 영양읍 동부리 동서대로 82번지",
  "number": "054-680-5196",
  "Latitude": 36.6628084,
  "Longitude": 129.1140517
 },
 {
  "name": "영주시보건소",
  "address": "경북 영주시 휴천동(휴천2동) 466-6 영주시보건소",
  "number": "054-631-4000",
  "Latitude": 36.8060641,
  "Longitude": 128.6219208
 },
 {
  "name": "영주적십자병원",
  "address": "영주시 대학로 327",
  "number": "054-630-0100",
  "Latitude": 36.8112455,
  "Longitude": 128.6127965
 },
 {
  "name": "영천시보건소",
  "address": "경북 영천시 문내동 152-1 ",
  "number": "054-339-7979",
  "Latitude": 35.9685384,
  "Longitude": 128.9325515
 },
 {
  "name": "영남대학교 영천병원",
  "address": "영천시 오수1길 10",
  "number": "054-330-7575",
  "Latitude": 35.9572122,
  "Longitude": 128.9130753
 },
 {
  "name": "예천군보건소",
  "address": "경북 예천군 예천읍 군청길 33, 예천군보건소",
  "number": "054-650-8059",
  "Latitude": 36.6576904,
  "Longitude": 128.4529668
 },
 {
  "name": "예천권병원",
  "address": "경북 예천군 예천읍 시장로 136, 예천권병원",
  "number": "054-654-6611",
  "Latitude": 36.6577554,
  "Longitude": 128.4592068
 },
 {
  "name": "의성군보건소",
  "address": "경북 의성군 의성읍 구봉길 228 ",
  "number": "054-830-6660",
  "Latitude": 36.345797,
  "Longitude": 128.6974677
 },
 {
  "name": "공생병원",
  "address": "의성군 의성읍 문소3길 96",
  "number": "054-830-6660",
  "Latitude": 36.3543433,
  "Longitude": 128.6947072
 },
 {
  "name": "청도군보건소",
  "address": "경북 청도군 화양읍 산성강변길 472 ",
  "number": "054-373-9453",
  "Latitude": 35.6585234,
  "Longitude": 128.7227659
 },
 {
  "name": "칠곡군보건소",
  "address": "경북 칠곡군 왜관읍 관문로 1길 30",
  "number": "054-979-0900",
  "Latitude": 35.9907022,
  "Longitude": 128.4184928
 },
 {
  "name": "포항시남구보건소",
  "address": "경북 포항시 남구 인덕동(제철동) 161-1 남구보건소",
  "number": "054-270-4004",
  "Latitude": 35.9924406,
  "Longitude": 129.3962235
 },
 {
  "name": "세명기독병원",
  "address": "경상북도 포항시 남구 대도동 94-8",
  "number": "054-275-0005",
  "Latitude": 36.0177119,
  "Longitude": 129.3622963
 },
 {
  "name": "포항성모병원",
  "address": "경상북도 포항시 남구 대잠동길 17",
  "number": "054-272-0151",
  "Latitude": 36.0148312,
  "Longitude": 129.3392909
 },
 {
  "name": "포항시북구보건소",
  "address": "경북 포항시 북구 장성동 1363",
  "number": "054-270-4114",
  "Latitude": 36.0707245,
  "Longitude": 129.3802775
 },
 {
  "name": "포항의료원",
  "address": "경북 포항시 북구 용흥로 36",
  "number": "054-247-0551",
  "Latitude": 36.0350941,
  "Longitude": 129.3544868
 },
 {
  "name": "은성의료재단 좋은선린병원",
  "address": "경상북도 포항시 북구 대신로 43",
  "number": "054-245-5000",
  "Latitude": 36.0480652,
  "Longitude": 129.367134
 },
 {
  "name": "울릉군보건의료원",
  "address": "경북 울릉군 울릉읍    울릉순환로 396-18",
  "number": "054-790-6832",
  "Latitude": 37.4899374,
  "Longitude": 130.8985208
 },
 {
  "name": "울진군보건소",
  "address": "경북 울진군 울진읍 읍내8길 61-8",
  "number": "054-783-1250",
  "Latitude": 36.9959757,
  "Longitude": 129.4045451
 },
 {
  "name": "청송군보건의료원",
  "address": "경북 청송군 청송읍 금곡리 1056-54 청송보건의료원",
  "number": "054-870-7100",
  "Latitude": 36.4310601,
  "Longitude": 129.0522753
 },
 {
  "name": "경북북부제2교도소 부속의원",
  "address": "경북 청송군 진보면 양정길 110",
  "number": "054-870-2575",
  "Latitude": 36.5294507,
  "Longitude": 129.0467064
 },
 {
  "name": "거제시보건소",
  "address": "경상남도 거제시 수양로 506 ",
  "number": "055-639-6200",
  "Latitude": 34.8916844,
  "Longitude": 128.6365824
 },
 {
  "name": "거붕백병원",
  "address": "경남거제시 계룡로5길 14",
  "number": "055-733-0000",
  "Latitude": 34.8726323,
  "Longitude": 128.6268045
 },
 {
  "name": "대우병원",
  "address": "경남거제시 두모길16",
  "number": "055-680-8119",
  "Latitude": 34.8722413,
  "Longitude": 128.7217033
 },
 {
  "name": "맑은샘병원",
  "address": "경남거제시 연초면 거제대로 4477",
  "number": "055-736-1004",
  "Latitude": 34.9096602,
  "Longitude": 128.6555797
 },
 {
  "name": "거창군보건소",
  "address": "경남 거창군 거창읍 거함대로 3079 거창군보건소",
  "number": "055-940-8335",
  "Latitude": 35.680813,
  "Longitude": 127.8986453
 },
 {
  "name": "거창적십자병원",
  "address": "경남 거창군 거창읍 중앙로91 거창적십자병원",
  "number": "055-944-3251",
  "Latitude": 35.6865089,
  "Longitude": 127.9091208
 },
 {
  "name": "고성군보건소",
  "address": "경남 고성군 고성읍 대독리 4 고성군보건소",
  "number": "055-670-4018",
  "Latitude": 34.9695667,
  "Longitude": 128.3154268
 },
 {
  "name": "김해시보건소",
  "address": "경남 김해시 외동(내외동) 1261-3 김해시 보건소",
  "number": "055-330-4481",
  "Latitude": 35.2322489,
  "Longitude": 128.8708565
 },
 {
  "name": "김해중앙병원",
  "address": "경상남도 김해시 분성로 94-8 (외동)",
  "number": "055-330-6000",
  "Latitude": 35.2294136,
  "Longitude": 128.8700167
 },
 {
  "name": "갑을장유병원",
  "address": "경상남도 김해시 장유로 167-13 (부곡동)",
  "number": "055-310-6114",
  "Latitude": 35.2086594,
  "Longitude": 128.805605
 },
 {
  "name": "조은금강병원",
  "address": "경상남도 김해시 김해대로 1814-37 (삼계동)",
  "number": "055-330-0428",
  "Latitude": 35.2737252,
  "Longitude": 128.8675093
 },
 {
  "name": "강일병원",
  "address": "가락로 359",
  "number": "055-822-0100",
  "Latitude": 37.5042046,
  "Longitude": 127.1104039
 },
 {
  "name": "김해복음병원",
  "address": "김해시 활천로 33",
  "number": "055-330-8888",
  "Latitude": 35.2304878,
  "Longitude": 128.8935607
 },
 {
  "name": "남해군보건소",
  "address": "경남 남해군 남해읍 선소로 6",
  "number": "055-860-8740",
  "Latitude": 34.8446902,
  "Longitude": 127.8987855
 },
 {
  "name": "이도의료재단 남해병원",
  "address": "경상남도 남해군 남해읍 화전로 169",
  "number": "055-863-2201",
  "Latitude": 34.846164,
  "Longitude": 127.8943923
 },
 {
  "name": "창원시 마산보건소",
  "address": "경남 창원시 마산합포구 월영동북로15",
  "number": "055-225-5941",
  "Latitude": 35.1824015,
  "Longitude": 128.5629165
 },
 {
  "name": "삼성창원병원",
  "address": "창원시 마산회원구 팔용로 158",
  "number": "055-233-8899",
  "Latitude": 35.2429513,
  "Longitude": 128.5920191
 },
 {
  "name": "경상남도마산의료원",
  "address": "창원시 마산합포구 3.15대로 231",
  "number": "055-249-1116(주간)",
  "Latitude": 35.1969107,
  "Longitude": 128.5678853
 },
 {
  "name": "SMG연세병원",
  "address": "창원시 마산합포구 3.15대로 76",
  "number": "055-243-0100",
  "Latitude": 35.1969107,
  "Longitude": 128.5678853
 },
 {
  "name": "밀양시보건소",
  "address": "경남 밀양시 삼문동 159-1 (삼문중앙로41)",
  "number": "055-359-7020",
  "Latitude": 35.4834814,
  "Longitude": 128.7528394
 },
 {
  "name": "밀양윤병원",
  "address": "경남 밀양시 삼문중앙로 32",
  "number": "070-8882-3277",
  "Latitude": 35.484695,
  "Longitude": 128.7556697
 },
 {
  "name": "밀양병원",
  "address": "경남 밀양시 밀양대로 1823(삼문동)",
  "number": "055-351-3993",
  "Latitude": 35.4871739,
  "Longitude": 128.7488446
 },
 {
  "name": "사천시보건소",
  "address": "경남 사천시 용현면 시청로 77-1, 사천시보건소",
  "number": "055-831-3630",
  "Latitude": 35.0044458,
  "Longitude": 128.0641297
 },
 {
  "name": "의료법인승연의료재단 삼천포서울병원",
  "address": "경남 사천시 남일로 33(동금동)",
  "number": "055-830-9009",
  "Latitude": 34.9311055,
  "Longitude": 128.0819934
 },
 {
  "name": "삼천포제일병원",
  "address": "경남 사천시 중앙로136",
  "number": "055-830-3099",
  "Latitude": 34.9371738,
  "Longitude": 128.0794671
 },
 {
  "name": "양산시보건소",
  "address": "경남 양산시 중부동 707-2(삽량로 169)",
  "number": "055-392-8300",
  "Latitude": 35.3357541,
  "Longitude": 129.0249831
 },
 {
  "name": "베데스다병원",
  "address": "신기로 28",
  "number": "055-384-9901"
 },
 {
  "name": "웅상중앙병원",
  "address": "서창로 59",
  "number": "055-912-1491",
  "Latitude": 35.4063743,
  "Longitude": 129.1645487
 },
 {
  "name": "웅상보건지소",
  "address": "삼호로 164",
  "number": "055-365-1008",
  "Latitude": 36.0564937,
  "Longitude": 129.3790638
 },
 {
  "name": "의령군보건소",
  "address": "경상남도 의령군 의령읍 서동리 534",
  "number": "055-570-4900",
  "Latitude": 35.3175708,
  "Longitude": 128.2546318
 },
 {
  "name": "의령병원",
  "address": "경남 의령군 의령읍 의병로14길 10",
  "number": "055-573-4100",
  "Latitude": 35.3185147,
  "Longitude": 128.2587943
 },
 {
  "name": "진주시보건소",
  "address": "경남 진주시 월아산로 2026, 1층 (초전동)",
  "number": "055-749-5714",
  "Latitude": 35.2146996,
  "Longitude": 128.1229819
 },
 {
  "name": "제일병원",
  "address": "경남 진주시 진주대로 885",
  "number": "055-750-7317",
  "Latitude": 35.1793942,
  "Longitude": 128.0899721
 },
 {
  "name": "고려병원",
  "address": "경남 진주시 동진로 2",
  "number": "055-751-2599",
  "Latitude": 35.1786102,
  "Longitude": 128.0920617
 },
 {
  "name": "반도병원",
  "address": "경남 진주시 남강로701",
  "number": "055-749-0556",
  "Latitude": 35.1917777,
  "Longitude": 128.0881618
 },
 {
  "name": "진주복음병원",
  "address": "경남 진주시 진양호로 370",
  "number": "055-749-7119",
  "Latitude": 35.1852364,
  "Longitude": 128.0695655
 },
 {
  "name": "진주세란병원",
  "address": "경남 진주시 진주대로 829",
  "number": "055-762-7575",
  "Latitude": 35.174462,
  "Longitude": 128.0929902
 },
 {
  "name": "경상국립대학교병원",
  "address": "경남 진주시 강남로 79",
  "number": "055-750-8939",
  "Latitude": 35.1770869,
  "Longitude": 128.0954964
 },
 {
  "name": "한일병원",
  "address": "경남 진주시 범골로 17",
  "number": "055-750-1373",
  "Latitude": 35.1799817,
  "Longitude": 128.1076213
 },
 {
  "name": "창원시 진해보건소",
  "address": "경남 창원시 진해구 풍호동 1 진해보건소",
  "number": "055-225-6121",
  "Latitude": 35.1313465,
  "Longitude": 128.710342
 },
 {
  "name": "연세에스병원",
  "address": "경남 창원시 진해구 해원로32번길 13",
  "number": "055-548-7700",
  "Latitude": 35.1545448,
  "Longitude": 128.6983452
 },
 {
  "name": "세광병원",
  "address": "경상남도 창원시 진해구 중원동로 55-1",
  "number": "055-540-3700",
  "Latitude": 35.149786,
  "Longitude": 128.6609432
 },
 {
  "name": "창녕군보건소",
  "address": "경남 창녕군 창녕읍 우포2로 1189-35 창녕군보건소",
  "number": "055-530-6201",
  "Latitude": 35.5436522,
  "Longitude": 128.4900857
 },
 {
  "name": "태황의료재단한성병원",
  "address": "경남 창녕군 창녕읍 교리1길 2",
  "number": "055-530-5119",
  "Latitude": 35.5421395,
  "Longitude": 128.4933873
 },
 {
  "name": "창원시 창원보건소",
  "address": "경남 창원시 의창구 신월동  창원보건소 96-2",
  "number": "055-225-4281",
  "Latitude": 35.2278737,
  "Longitude": 128.685545
 },
 {
  "name": "창원경상국립대학교병원",
  "address": "창원시 성산구 삼정자로11",
  "number": "055-214-2174",
  "Latitude": 35.2011094,
  "Longitude": 128.7122584
 },
 {
  "name": "창원파티마병원",
  "address": "창원시 의창구 창이대로 45",
  "number": "055-270-1021",
  "Latitude": 35.2371882,
  "Longitude": 128.6457008
 },
 {
  "name": "창원한마음병원",
  "address": "창원시 의창구 용동로57번길 8",
  "number": "055-225-0000",
  "Latitude": 35.2420832,
  "Longitude": 128.706151
 },
 {
  "name": "통영시보건소",
  "address": "경남 통영시 무전동 401-1 통영시보건소",
  "number": "055-650-6055",
  "Latitude": 34.8597726,
  "Longitude": 128.4320154
 },
 {
  "name": "통영적십자병원 ",
  "address": "경남 통영시 중앙로97",
  "number": "055-644-8901",
  "Latitude": 34.8422443,
  "Longitude": 128.419918
 },
 {
  "name": "새통영병원",
  "address": "경남 통영시 무전7길 192",
  "number": "055-646-6000",
  "Latitude": 34.8653408,
  "Longitude": 128.4207463
 },
 {
  "name": "하동군보건소",
  "address": "경남 하동군 하동읍 읍내리 149-1 하동보건소",
  "number": "055-882-4000",
  "Latitude": 35.0667069,
  "Longitude": 127.7529878
 },
 {
  "name": "새하동병원",
  "address": "경상남도 하동군 하동읍 화심길 39",
  "number": "055-880-4200",
  "Latitude": 35.0829984,
  "Longitude": 127.7387869
 },
 {
  "name": "함안군보건소",
  "address": "경상남도 함안군 가야읍 말산리 100번지",
  "number": "055-580-3113",
  "Latitude": 35.2757186,
  "Longitude": 128.410266
 },
 {
  "name": "영동병원",
  "address": "경남 함안군 칠원읍 용산2길 45-13",
  "number": "055-586-2000",
  "Latitude": 35.3089948,
  "Longitude": 128.5160151
 },
 {
  "name": "아라한국병원",
  "address": "함안군 산인면 학산2길 17-50",
  "number": "055-582-8088",
  "Latitude": 35.2739489,
  "Longitude": 128.4346032
 },
 {
  "name": "함양군보건소",
  "address": "경남 함양군 함양읍 한들로 141",
  "number": "055-960-8040",
  "Latitude": 35.5196535,
  "Longitude": 127.7317989
 },
 {
  "name": "합천군보건소",
  "address": "경남 합천군 합천읍 합천리 524-1",
  "number": "055-930-3683",
  "Latitude": 35.5684913,
  "Longitude": 128.1558166
 },
 {
  "name": "산청군보건의료원",
  "address": "경상남도 산청군 산청읍 중앙로 97",
  "number": "055-970-7582",
  "Latitude": 35.415265,
  "Longitude": 127.8795306
 },
 {
  "name": "서귀포시(서귀포보건소)",
  "address": "제주 서귀포시 중앙로101번길 52",
  "number": "064-760-6091",
  "Latitude": 33.2534258,
  "Longitude": 126.5553625
 },
 {
  "name": "서귀포열린병원",
  "address": "제주특별자치도 서귀포시 일주동로 8638",
  "number": "064-762-8001",
  "Latitude": 33.2545394,
  "Longitude": 126.565499
 },
 {
  "name": "서귀포의료원",
  "address": "제주특별자치도 서귀포시 장수로 47 ",
  "number": "064-730-3008",
  "Latitude": 33.2560963,
  "Longitude": 126.5630644
 },
 {
  "name": "서귀포시(동부보건소)",
  "address": "제주 서귀포시 남원읍 남원리 2359-1 동부보건소",
  "number": "064-760-6192",
  "Latitude": 33.2757617,
  "Longitude": 126.7034172
 },
 {
  "name": "서귀포시(서부보건소)",
  "address": "제주특별자치도 서귀포시 대정읍 최남단해안로15번길 12, 서귀포시 서부보건소",
  "number": "064-760-6239",
  "Latitude": 33.2187035,
  "Longitude": 126.2534156
 },
 {
  "name": "제주시제주보건소",
  "address": "제주 제주시 연삼로 264",
  "number": "064-728-1410",
  "Latitude": 33.4917032,
  "Longitude": 126.5202864
 },
 {
  "name": "제주대학교병원",
  "address": "아란13길 15",
  "number": "064-717-1661",
  "Latitude": 33.4670429,
  "Longitude": 126.5457558
 },
 {
  "name": "제주한라병원",
  "address": "도령로 65",
  "number": "064-740-5451",
  "Latitude": 33.4898195,
  "Longitude": 126.4851928
 },
 {
  "name": "한마음병원",
  "address": "연신로 52",
  "number": "064-750-9131~2",
  "Latitude": 33.4966617,
  "Longitude": 126.546394
 },
 {
  "name": "한국병원",
  "address": "서광로 193",
  "number": "064-750-0582",
  "Latitude": 33.5003822,
  "Longitude": 126.5167845
 },
 {
  "name": "중앙병원",
  "address": "월랑로 91",
  "number": "064-786-7621",
  "Latitude": 33.4920942,
  "Longitude": 126.470256
 },
 {
  "name": "제주시(동부보건소)",
  "address": "제주 제주시 구좌읍 김녕리 1697-1 동부보건소 동부보건소",
  "number": "064-728-1686",
  "Latitude": 33.5543773,
  "Longitude": 126.7513422
 },
 {
  "name": "제주시(서부보건소)",
  "address": "제주특별자치도 제주시 한림읍 한림리 966-1번지 (한림리)",
  "number": "064-728-4141",
  "Latitude": 33.4123118,
  "Longitude": 126.2696764
 }
]