[
 {
  "No": 0,
  "title": "(홍인의료소비자생활협동조합)우리현대의원",
  "address": "경기도 용인시 처인구 양지면 양지리 627-3 현대의원",
  "Latitude": 37.2346919,
  "Longitude": 127.2836714,
  "phoneNum": "031-338-8012"
 },
 {
  "No": 1,
  "title": "153연세연합의원",
  "address": "경기도 안양시 만안구 안양로 142 3층 (안양동)",
  "Latitude": 37.3871845,
  "Longitude": 126.9314536,
  "phoneNum": "031-469-1006"
 },
 {
  "No": 2,
  "title": "153연합의원",
  "address": "인천광역시 남동구 호구포로 830 5층 (구월동)",
  "Latitude": 37.4464158,
  "Longitude": 126.7253564,
  "phoneNum": "032-217-1100"
 },
 {
  "No": 3,
  "title": "21세기내과의원",
  "address": "경기도 양주시 광사동 651-6 광장프라자",
  "Latitude": 37.7960007,
  "Longitude": 127.0803627,
  "phoneNum": "031-847-8600"
 },
 {
  "No": 4,
  "title": "21세기내과의원",
  "address": "경기도 양주시 광사동 651-6 광장프라자",
  "Latitude": 37.7960007,
  "Longitude": 127.0803627,
  "phoneNum": "031-847-8600"
 },
 {
  "No": 5,
  "title": "21세기미소내과의원",
  "address": "인천광역시 남동구 백범로 322 2층 (간석동, 진메디칼센터)",
  "Latitude": 37.4640791,
  "Longitude": 126.7145802,
  "phoneNum": "032-431-7715"
 },
 {
  "No": 6,
  "title": "21세기병원",
  "address": "강원도 원주시 단계동 883-6 21c병원",
  "Latitude": 37.343509,
  "Longitude": 127.9324384,
  "phoneNum": "033-748-9999"
 },
 {
  "No": 7,
  "title": "21세기소아청소년과의원",
  "address": "강원도 원주시 단계동 1117-5",
  "Latitude": 37.3469226,
  "Longitude": 127.9282423,
  "phoneNum": "033-745-0815"
 },
 {
  "No": 8,
  "title": "21세기연세의원",
  "address": "경기도 성남시 분당구 성남대로 345 7층 701~703호 (정자동, 정자역프라자)",
  "Latitude": 37.3669046,
  "Longitude": 127.1076935,
  "phoneNum": "031-711-0078"
 },
 {
  "No": 9,
  "title": "21세기연합소아과의원",
  "address": "대구광역시 수성구 만촌동 1329-11",
  "Latitude": 35.8733316,
  "Longitude": 128.6401314,
  "phoneNum": "053-752-3101"
 },
 {
  "No": 10,
  "title": "21세기우리의원",
  "address": "경기도 화성시 동탄솔빛로 48 2,3,4,층 (반송동, 거택프라자)",
  "Latitude": 37.1930977,
  "Longitude": 127.0733401,
  "phoneNum": "031-8003-9003"
 },
 {
  "No": 11,
  "title": "21세기의원",
  "address": "경기도 안산시 상록구 본오동 871-2 동보프라자",
  "Latitude": 37.2963642,
  "Longitude": 126.8633546,
  "phoneNum": "031-419-8181"
 },
 {
  "No": 12,
  "title": "21세기충주제통의원",
  "address": "충청북도 충주시 교현동 616-2 보성빌딩",
  "Latitude": 36.9776238,
  "Longitude": 127.9286164,
  "phoneNum": "043-855-8110"
 },
 {
  "No": 13,
  "title": "21세기하나내과의원",
  "address": "전라남도 목포시 상동 828 목포하나의원",
  "Latitude": 34.8039761,
  "Longitude": 126.4196146,
  "phoneNum": "061-280-2800"
 },
 {
  "No": 14,
  "title": "24시열린의원",
  "address": "서울특별시 마포구 월드컵북로 396 누리꿈스퀘어 지하층 B1095호 (상암동)",
  "Latitude": 37.579396,
  "Longitude": 126.8897942,
  "phoneNum": "02-2132-2475"
 },
 {
  "No": 15,
  "title": "365mc모인이비인후과의원",
  "address": "서울특별시 중랑구 면목동 473-16",
  "Latitude": 37.5807949,
  "Longitude": 127.0886659,
  "phoneNum": "02-491-3605"
 },
 {
  "No": 16,
  "title": "365검단열린의원",
  "address": "인천광역시 서구 단봉로 97-7 3층 305, 306호 (오류동, 오류센터프라자)",
  "Latitude": 37.5979213,
  "Longitude": 126.6379828,
  "phoneNum": "032-561-0365"
 },
 {
  "No": 17,
  "title": "365내과연합의원",
  "address": "인천광역시 계양구 임학동 67-9",
  "Latitude": 37.5448134,
  "Longitude": 126.7379579,
  "phoneNum": "032-542-3659"
 },
 {
  "No": 18,
  "title": "365내과의원",
  "address": "경기도 수원시 영통구 영통동 960-3 NEW WORLD PLAZA",
  "Latitude": 37.2524485,
  "Longitude": 127.0709721,
  "phoneNum": "031-233-2878"
 },
 {
  "No": 19,
  "title": "365늘봄메디칼의원",
  "address": "경기도 군포시 군포첨단산업2로 4 티타워 2,3층 (부곡동)",
  "Latitude": 37.354006,
  "Longitude": 126.948539,
  "phoneNum": "031-461-3119"
 },
 {
  "No": 20,
  "title": "365늘봄메디칼의원",
  "address": "경기도 남양주시 다산지금로 131 다산지금지구 근생8-3 3~5층 (다산동)",
  "Latitude": 37.596176,
  "Longitude": 127.1721184,
  "phoneNum": "031-510-7575"
 },
 {
  "No": 21,
  "title": "365다나아가정의학과의원",
  "address": "충청북도 청주시 서원구 산남로 48 3층 (산남동, 대운프라자)",
  "Latitude": 36.6114627,
  "Longitude": 127.4688993,
  "phoneNum": "043-904-8275"
 },
 {
  "No": 22,
  "title": "365다움의원",
  "address": "서울특별시 성동구 왕십리광장로 17 왕십리민자역사 4층 (행당동)",
  "Latitude": 37.5621482,
  "Longitude": 127.0379421,
  "phoneNum": "02-2297-1755"
 },
 {
  "No": 23,
  "title": "365더사랑의원",
  "address": "충청북도 청주시 흥덕구 오송읍 만수리 519",
  "Latitude": 36.6307936,
  "Longitude": 127.3304735,
  "phoneNum": "043-233-0486"
 },
 {
  "No": 24,
  "title": "365드림아이의원",
  "address": "경상북도 포항시 북구 두호동 1086-2",
  "Latitude": 36.0639048,
  "Longitude": 129.3803726,
  "phoneNum": "054-232-1339"
 },
 {
  "No": 25,
  "title": "365드림의원",
  "address": "경기도 광주시 광주대로 35 황백빌딩 4,8층 (경안동)",
  "Latitude": 37.4097851,
  "Longitude": 127.2602128,
  "phoneNum": "031-761-1365"
 },
 {
  "No": 26,
  "title": "365드림의원",
  "address": "경기도 안산시 단원구 선부광장1로 56 3층 301,308호일부,309호 (선부동)",
  "Latitude": 37.3365541,
  "Longitude": 126.8107141,
  "phoneNum": "031-364-8015"
 },
 {
  "No": 27,
  "title": "365메디의원",
  "address": "서울특별시 강북구 삼양로 241 3층 (미아동)",
  "Latitude": 37.6315505,
  "Longitude": 127.0290393,
  "phoneNum": "02-980-0075"
 },
 {
  "No": 28,
  "title": "365문정사랑의원",
  "address": "서울특별시 송파구 송이로32길 37 1층 (문정동, 문정푸르지오아파트)",
  "Latitude": 37.4868019,
  "Longitude": 127.1271929,
  "phoneNum": "02-431-1339"
 },
 {
  "No": 29,
  "title": "365미소내과의원",
  "address": "서울특별시 동작구 남부순환로 2055 2층 (사당동)",
  "Latitude": 37.4768285,
  "Longitude": 126.9770755,
  "phoneNum": "02-522-3650"
 },
 {
  "No": 30,
  "title": "365벗이비인후과의원",
  "address": "경기도 부천시 길주로 183 303,307호 (중동, 영라이프빌딩)",
  "Latitude": 37.5052051,
  "Longitude": 126.7628534,
  "phoneNum": "032-322-7585"
 },
 {
  "No": 31,
  "title": "365별소아청소년과의원",
  "address": "인천광역시 서구 신현동 303 금강아미움",
  "Latitude": 37.5179976,
  "Longitude": 126.6671975,
  "phoneNum": "032-581-9900"
 },
 {
  "No": 32,
  "title": "365병원",
  "address": "경상남도 창원시 마산회원구 석전동 232-5 365병원",
  "Latitude": 35.2337554,
  "Longitude": 128.5794914,
  "phoneNum": "055-248-0365"
 },
 {
  "No": 33,
  "title": "365봄이비인후과의원",
  "address": "서울특별시 성북구 길음로 33 A동상가동 지하1층 1호,2-1호 (길음동, 길음뉴타운8단지아파트)",
  "Latitude": 37.6075197,
  "Longitude": 127.018009,
  "phoneNum": "02-943-9119"
 },
 {
  "No": 34,
  "title": "365삼성i소아청소년과의원",
  "address": "경기도 파주시 교하로 87 8층 (목동동, 삼성프라자)",
  "Latitude": 37.7238257,
  "Longitude": 126.7416983,
  "phoneNum": "031-945-7545"
 },
 {
  "No": 35,
  "title": "365서울소아청소년과의원",
  "address": "경기도 고양시 덕양구 화정동 982 롯데마트",
  "Latitude": 37.6329073,
  "Longitude": 126.8311083,
  "phoneNum": "031-975-5056"
 },
 {
  "No": 36,
  "title": "365서울연합의원",
  "address": "서울특별시 중랑구 망우로 463 2층 (망우동)",
  "Latitude": 37.6006215,
  "Longitude": 127.103622,
  "phoneNum": "02-432-7580"
 },
 {
  "No": 37,
  "title": "365소아청소년과의원",
  "address": "경기도 김포시 김포한강4로 113 503,504호 (장기동, 신한프라자)",
  "Latitude": 37.6438776,
  "Longitude": 126.6683465,
  "phoneNum": "031-981-3650"
 },
 {
  "No": 38,
  "title": "365스마트의원",
  "address": "경기도 수원시 장안구 천천동 526 롯데마트",
  "Latitude": 37.296113,
  "Longitude": 126.982925,
  "phoneNum": "031-268-7234"
 },
 {
  "No": 39,
  "title": "365스마트의원",
  "address": "경기도 이천시 구만리로 191 4층 (안흥동, 롯데캐슬 골드스카이)",
  "Latitude": 37.2744234,
  "Longitude": 127.454369,
  "phoneNum": "031-635-0365"
 },
 {
  "No": 40,
  "title": "365아이랑소아청소년과의원",
  "address": "경기도 수원시 영통구 중부대로 604 1층 (영통동, 수원영통리슈빌스카이오피스텔)",
  "Latitude": 37.2672399,
  "Longitude": 127.0813568,
  "phoneNum": "031-273-0203"
 },
 {
  "No": 41,
  "title": "365아이맘의원",
  "address": "인천광역시 미추홀구 소성로 6 지하1층 (용현동, 홈플러스)",
  "Latitude": 37.4470266,
  "Longitude": 126.650843,
  "phoneNum": "032-875-8275"
 },
 {
  "No": 42,
  "title": "365연세홈닥터의원",
  "address": "대전광역시 대덕구 송촌동 460-5 광혜빌딩",
  "Latitude": 36.3658277,
  "Longitude": 127.4396526,
  "phoneNum": "042-636-0365"
 },
 {
  "No": 43,
  "title": "365연합의원",
  "address": "전라남도 여수시 시청로 46 2, 3, 4, 5층 (학동)",
  "Latitude": 34.7656458,
  "Longitude": 127.663258,
  "phoneNum": "061-686-0365"
 },
 {
  "No": 44,
  "title": "365연합의원",
  "address": "경기도 평택시 이충동 610-1",
  "Latitude": 37.0520496,
  "Longitude": 127.0573023,
  "phoneNum": "031-611-2119"
 },
 {
  "No": 45,
  "title": "365연합의원",
  "address": "전라북도 익산시 무왕로19길 59 2층 (어양동, 다나빌딩)",
  "Latitude": 35.9641531,
  "Longitude": 126.9839964,
  "phoneNum": "063-832-6801"
 },
 {
  "No": 46,
  "title": "365열린가정의학과의원",
  "address": "서울특별시 강남구 대치동 938 삼환 아르누보2",
  "Latitude": 37.4973224,
  "Longitude": 127.0546585,
  "phoneNum": "02-565-7119"
 },
 {
  "No": 47,
  "title": "365열린가정의학과의원",
  "address": "충청북도 청주시 흥덕구 진재로 51 3층 (복대동)",
  "Latitude": 36.635823,
  "Longitude": 127.4293015,
  "phoneNum": "043-239-4226"
 },
 {
  "No": 48,
  "title": "365열린메디칼의원",
  "address": "경기도 수원시 권선구 금곡로 202 e-SPACE CITY-1 208~209, 213, 301~304, 308~311, 405~409호 (금곡동)",
  "Latitude": 37.2706261,
  "Longitude": 126.9582575,
  "phoneNum": "031-231-1119"
 },
 {
  "No": 49,
  "title": "365열린사랑의원",
  "address": "강원도 원주시 능라동길 3 미래네크워크 301호 (무실동)",
  "Latitude": 37.3330903,
  "Longitude": 127.9291187,
  "phoneNum": "033-733-2426"
 },
 {
  "No": 50,
  "title": "365열린연합의원",
  "address": "대전광역시 서구 관저동 1415 관저빌딩",
  "Latitude": 36.2999951,
  "Longitude": 127.341022,
  "phoneNum": "042-273-2345"
 },
 {
  "No": 51,
  "title": "365열린연합의원",
  "address": "세종특별자치시 마음로 74 302.303호 (고운동, 그랜드프라자)",
  "Latitude": 37.651743,
  "Longitude": 126.7783755,
  "phoneNum": "044-864-7757"
 },
 {
  "No": 52,
  "title": "365열린의원",
  "address": "서울특별시 노원구 한글비석로 77 3층 (하계동)",
  "Latitude": 37.6450631,
  "Longitude": 127.0767254,
  "phoneNum": "02-976-3658"
 },
 {
  "No": 53,
  "title": "365열린의원",
  "address": "경기도 안산시 상록구 시낭북로4길 1 2층 (부곡동)",
  "Latitude": 37.3352321,
  "Longitude": 126.858164,
  "phoneNum": "031-405-0365"
 },
 {
  "No": 54,
  "title": "365열린의원",
  "address": "경기도 안산시 상록구 시낭북로4길 1 2층 (부곡동)",
  "Latitude": 37.3352321,
  "Longitude": 126.858164,
  "phoneNum": "031-405-0365"
 },
 {
  "No": 55,
  "title": "365열린종합내과의원",
  "address": "대구광역시 달서구 월배로 327 4층 (송현동)",
  "Latitude": 35.8205811,
  "Longitude": 128.5691762,
  "phoneNum": "053-652-3655"
 },
 {
  "No": 56,
  "title": "365웃는세상의원",
  "address": "서울특별시 중랑구 망우로 203 215,216호 (중화동, 중화동주상복합)",
  "Latitude": 37.5995064,
  "Longitude": 127.0778661,
  "phoneNum": "02-493-0101"
 },
 {
  "No": 57,
  "title": "365웰니스의원",
  "address": "충청남도 천안시 서북구 충무로 172 2,3,5층 (쌍용동, 범양건영)",
  "Latitude": 36.7939747,
  "Longitude": 127.1264675,
  "phoneNum": "592-1339"
 },
 {
  "No": 58,
  "title": "365위례연세내과의원",
  "address": "경기도 성남시 수정구 창곡동 513 에이플타워",
  "Latitude": 37.4669249,
  "Longitude": 127.1495165,
  "phoneNum": "031-722-0055"
 },
 {
  "No": 59,
  "title": "365일건강의원",
  "address": "부산광역시 동구 범일동 1445-49 범일메디칼센타",
  "Latitude": 35.1402908,
  "Longitude": 129.0488236,
  "phoneNum": "051-635-9918"
 },
 {
  "No": 60,
  "title": "365장편한호내과의원",
  "address": "경기도 안산시 상록구 샘골로 150 동성빌딩 202,203호 (본오동)",
  "Latitude": 37.2971726,
  "Longitude": 126.8633684,
  "phoneNum": "031-502-0365"
 },
 {
  "No": 61,
  "title": "365제주의원",
  "address": "제주특별자치도 제주시 서광로 302 2~6층 (이도2동 1773-5)",
  "Latitude": 33.5003302,
  "Longitude": 126.5289133,
  "phoneNum": "753-4645"
 },
 {
  "No": 62,
  "title": "365종합의원",
  "address": "경기도 오산시 경기대로 133 오렌지팩토리아울렛 1층 (원동)",
  "Latitude": 37.1367514,
  "Longitude": 127.0728336,
  "phoneNum": "031-378-0365"
 },
 {
  "No": 63,
  "title": "365최재혁가정의학과의원",
  "address": "대전광역시 서구 가수원동 1050",
  "Latitude": 36.3023209,
  "Longitude": 127.3527746,
  "phoneNum": "042-544-1119"
 },
 {
  "No": 64,
  "title": "365키즈소아청소년과의원",
  "address": "경기도 의왕시 내손동 414-3 대림프라자",
  "Latitude": 37.3899291,
  "Longitude": 126.9774094,
  "phoneNum": "031-423-5575"
 },
 {
  "No": 65,
  "title": "365편안한내과의원",
  "address": "경기도 광명시 광명동 158-85",
  "Latitude": 37.4794764,
  "Longitude": 126.8548736,
  "phoneNum": "02-2612-3365"
 },
 {
  "No": 66,
  "title": "365프렌즈내과의원",
  "address": "경기도 성남시 수정구 창곡동 513-1 위례건아타워",
  "Latitude": 37.4669249,
  "Longitude": 127.1495165,
  "phoneNum": "031-731-6614"
 },
 {
  "No": 67,
  "title": "365플러스내과의원",
  "address": "경기도 하남시 미사강변동로84번길 39 에코타워 401~405, 406일부, 407일부, 506호 (망월동)",
  "Latitude": 37.563118,
  "Longitude": 127.192932,
  "phoneNum": "031-796-8288"
 },
 {
  "No": 68,
  "title": "365플러스의원",
  "address": "경기도 부천시 경인로 532 3층 (괴안동)",
  "Latitude": 37.4811278,
  "Longitude": 126.805351,
  "phoneNum": "032-345-3657"
 },
 {
  "No": 69,
  "title": "365플러스이비인후과의원",
  "address": "경기도 용인시 기흥구 보정동 1208-3 야후빌딩",
  "Latitude": 37.3207208,
  "Longitude": 127.1146517,
  "phoneNum": "031-898-3654"
 },
 {
  "No": 70,
  "title": "365한국신통의원",
  "address": "서울특별시 광진구 면목로 174 2층 (중곡동)",
  "Latitude": 37.5686408,
  "Longitude": 127.0829741,
  "phoneNum": "02-499-0906"
 },
 {
  "No": 71,
  "title": "365한숲가정의학과의원",
  "address": "경기도 용인시 처인구 남사면 한숲로 45 한숲스퀘어옐로우 4층 415호",
  "Latitude": 37.1523382,
  "Longitude": 127.1700576,
  "phoneNum": "031-338-3365"
 },
 {
  "No": 72,
  "title": "365호계내과의원",
  "address": "울산광역시 북구 호계동 271-10",
  "Latitude": 35.6276248,
  "Longitude": 129.3514218,
  "phoneNum": "052-295-1190"
 },
 {
  "No": 73,
  "title": "365힐링의원",
  "address": "서울특별시 강동구 천호동 447-15 진넥스빌Ⅲ",
  "Latitude": 37.536135,
  "Longitude": 127.132679,
  "phoneNum": "02-475-3650"
 },
 {
  "No": 74,
  "title": "365힐링의원",
  "address": "경기도 용인시 기흥구 보정동 1208-2 씨티프라자",
  "Latitude": 37.3207062,
  "Longitude": 127.1144354,
  "phoneNum": "031-8023-5365"
 },
 {
  "No": 75,
  "title": "3대정이비인후과의원",
  "address": "경기도 성남시 분당구 야탑로 95 2층 (야탑동, 세신옴니코아)",
  "Latitude": 37.41014,
  "Longitude": 127.129237,
  "phoneNum": "031-709-8400"
 },
 {
  "No": 76,
  "title": "911매일의원",
  "address": "제주특별자치도 제주시 이도이동 1019-11",
  "Latitude": 33.4947509,
  "Longitude": 126.532988,
  "phoneNum": "064-724-0911"
 },
 {
  "No": 77,
  "title": "ABC김광우소아청소년과의원",
  "address": "경상북도 포항시 북구 두호동 1037-1",
  "Latitude": 36.0595805,
  "Longitude": 129.376005,
  "phoneNum": "054-252-7272"
 },
 {
  "No": 78,
  "title": "B.M산부인과의원",
  "address": "경기도 안산시 상록구 광덕1로 376 4층 (이동, 한대빌딩)",
  "Latitude": 37.3077308,
  "Longitude": 126.8510169,
  "phoneNum": "031-501-0660"
 },
 {
  "No": 79,
  "title": "CNA서울아동병원",
  "address": "경상남도 창원시 성산구 상남동 27-1 서울아동병원",
  "Latitude": 35.220848,
  "Longitude": 128.680955,
  "phoneNum": "055-262-8511"
 },
 {
  "No": 80,
  "title": "DO두신경과의원",
  "address": "경상남도 통영시 무전대로 41 201~401호 (무전동)",
  "Latitude": 34.8604004,
  "Longitude": 128.4252554,
  "phoneNum": "055-725-7979"
 },
 {
  "No": 81,
  "title": "DR.문이비인후과의원",
  "address": "서울특별시 관악구 봉천동 496-5",
  "Latitude": 37.4870842,
  "Longitude": 126.9471178,
  "phoneNum": "02-873-8575"
 },
 {
  "No": 82,
  "title": "Dr.배가정의학과의원",
  "address": "경기도 이천시 부발읍 아미리 725-8",
  "Latitude": 37.2520793,
  "Longitude": 127.4903024,
  "phoneNum": "070-8824-4846"
 },
 {
  "No": 83,
  "title": "Dr윤의원",
  "address": "경상남도 창원시 성산구 중앙동 92 롯데마트 창원중앙점",
  "Latitude": 35.2254585,
  "Longitude": 128.6802606,
  "phoneNum": "055-263-8119"
 },
 {
  "No": 84,
  "title": "J&L우리들내과의원",
  "address": "부산광역시 중구 대청동3가 20",
  "Latitude": 35.1027832,
  "Longitude": 129.0286009,
  "phoneNum": "051-256-7533"
 },
 {
  "No": 85,
  "title": "JS노송병원",
  "address": "인천광역시 서구 가정로 280 2~5층, 7층 (석남동)",
  "Latitude": 37.5064219,
  "Longitude": 126.672376,
  "phoneNum": "516-5000"
 },
 {
  "No": 86,
  "title": "JS메디칼내과외과정형외과의원",
  "address": "충청남도 천안시 서북구 직산읍 봉주로 51 ()",
  "Latitude": 36.8774614,
  "Longitude": 127.1522391,
  "phoneNum": "041-589-7575"
 },
 {
  "No": 87,
  "title": "KS병원",
  "address": "광주광역시 광산구 수완동 1152 KS병원",
  "Latitude": 35.1979016,
  "Longitude": 126.8331575,
  "phoneNum": "062-975-9000"
 },
 {
  "No": 88,
  "title": "K마디병원",
  "address": "대구광역시 북구 노원동2가 280",
  "Latitude": 35.8881972,
  "Longitude": 128.5739129,
  "phoneNum": "053-341-0119"
 },
 {
  "No": 89,
  "title": "LBO의원",
  "address": "서울특별시 중랑구 망우로 247 2층 (중화동, 로얄스포츠센타)",
  "Latitude": 37.5952924,
  "Longitude": 127.0795806,
  "phoneNum": "02-496-0100"
 },
 {
  "No": 90,
  "title": "LH의원",
  "address": "경기도 성남시 분당구 성남대로54번길 3 3층 (구미동, 대한주택공사별관)",
  "Latitude": 37.3410984,
  "Longitude": 127.1108892,
  "phoneNum": "031-738-5180"
 },
 {
  "No": 91,
  "title": "MH연세병원",
  "address": "경상남도 창원시 마산합포구 월남동2가 5 합포의료재단",
  "Latitude": 35.1863296,
  "Longitude": 128.5616194,
  "phoneNum": "055-243-0100"
 },
 {
  "No": 92,
  "title": "MS재건병원",
  "address": "대구광역시 중구 동인동1가 358-2 MS재건병원",
  "Latitude": 35.8718372,
  "Longitude": 128.6048522,
  "phoneNum": "053-653-0119"
 },
 {
  "No": 93,
  "title": "SCH서울아동병원",
  "address": "경상남도 통영시 중앙로 334-1 5~9층 (무전동)",
  "Latitude": 34.8601353,
  "Longitude": 128.4291267,
  "phoneNum": "055-647-0778"
 },
 {
  "No": 94,
  "title": "SC제일산부인과의원",
  "address": "서울특별시 광진구 구의동 234-14 SC제일산부인과",
  "Latitude": 37.544704,
  "Longitude": 127.085655,
  "phoneNum": "02-447-3111"
 },
 {
  "No": 95,
  "title": "SG삼성조은병원",
  "address": "충청남도 천안시 서북구 불당동 1488 NS타워",
  "Latitude": 36.8083197,
  "Longitude": 127.106278,
  "phoneNum": "041-571-7581"
 },
 {
  "No": 96,
  "title": "SK우리들정형외과의원",
  "address": "서울특별시 강북구 미아동 1353-5 에스케이북한산시티",
  "Latitude": 37.6199188,
  "Longitude": 127.0128244,
  "phoneNum": "02-986-8707"
 },
 {
  "No": 97,
  "title": "SK하이스텍부속의원",
  "address": "경기도 이천시 부발읍 아미리 712-7 에스케이하이닉스",
  "Latitude": 37.2501827,
  "Longitude": 127.4863992,
  "phoneNum": "031-5185-5555"
 }
]