[{"name":"충무드림약국","address":"충청남도 아산시 모종남로12번길 16, 104호 (모종동)","number":"041-531-0321","Latitude":"36.7810426","Longitude":"127.0280662"},{"name":"대광약국","address":"충청남도 아산시 모종남로12번길 7, 1층 (모종동)","number":"041-545-1488","Latitude":"36.7810426","Longitude":"127.0280662"},{"name":"탕정온빛약국","address":"충청남도 아산시 탕정면 한들물빛도시로 85, 103호","number":"041-549-3649","Latitude":"36.7839134","Longitude":"127.0849837"},{"name":"시민로사거리약국","address":"충청남도 아산시 번영로 99, 시민로사거리약국 1층 (온천동)","number":"041-548-5841","Latitude":"36.786122","Longitude":"127.001805"},{"name":"미래약국","address":"충청남도 아산시 배방읍 용연로 152, 1층 104호","number":"041-533-4239","Latitude":"36.7848819","Longitude":"127.094766"},{"name":"온약국","address":"충청남도 아산시 아산로 118-3, 1층 103호 (온천동)","number":"041-541-5841","Latitude":"36.784175","Longitude":"127.0031908"},{"name":"탕정한빛약국","address":"충청남도 아산시 탕정면 탕정면로 225 (탕정면)","number":"041-544-9606","Latitude":"36.8091208","Longitude":"127.0759487"},{"name":"행복이열리는약국","address":"충청남도 아산시 서부북로 973, 115호 (배미동, 서진아파트상가)","number":"041-548-4163","Latitude":"36.7893186","Longitude":"126.9670503"},{"name":"아산프라자약국","address":"충청남도 아산시 번영로 204 (모종동)","number":"041-533-0787","Latitude":"36.7843703","Longitude":"127.0133184"},{"name":"아산종합약국","address":"충청남도 아산시 충무로 9 (온천동)","number":"041-547-6500","Latitude":"36.7822658","Longitude":"127.0041992"},{"name":"사랑온누리약국","address":"충청남도 아산시 신창면 남성길 124","number":"041-531-7045","Latitude":"36.7903974","Longitude":"126.9544725"},{"name":"갑자약국","address":"충청남도 아산시 배방읍 용연로 84-7, 105호 (에듀시티)","number":"041-534-2747","Latitude":"36.7889492","Longitude":"127.0898522"},{"name":"세계로약국","address":"충청남도 아산시 시민로 423 (온천동)","number":"041-549-4161","Latitude":"36.7881586","Longitude":"127.0009043"},{"name":"친절한마음약국","address":"충청남도 아산시 용화로9번길 4-22 (용화동)","number":"041-533-0825","Latitude":"36.7714091","Longitude":"127.0085581"},{"name":"모산종로약국","address":"충청남도 아산시 배방읍 모산로 185 (배방읍)","number":"041-549-4131","Latitude":"36.7755281","Longitude":"127.0631312"},{"name":"음봉약국","address":"충청남도 아산시 음봉면 음봉로 805","number":"041-533-8075","Latitude":"36.8290276","Longitude":"127.0963907"},{"name":"그린약국","address":"충청남도 아산시 온천대로 1480, 1층 (온천동)","number":"041-545-2071","Latitude":"36.7896296","Longitude":"127.001239"},{"name":"광해약국","address":"충청남도 아산시 번영로230번길 15 (모종동)","number":"041-546-4566","Latitude":"36.7825283","Longitude":"127.0158202"},{"name":"오렌지온누리약국","address":"충청남도 아산시 번영로234번길 2 (모종동)","number":"041-532-1400","Latitude":"36.783673","Longitude":"127.016499"},{"name":"365열린약국","address":"충청남도 아산시 번영로 223, 4층 (모종동, 아산동양고속터미널복합시설)","number":"041-533-9610","Latitude":"36.7845806","Longitude":"127.0152102"},{"name":"태평양약국","address":"충청남도 아산시 시민로 293 (용화동)","number":"041-545-7582","Latitude":"36.7700947","Longitude":"127.0013076"},{"name":"하마약국","address":"충청남도 아산시 둔포면 아산밸리중앙로 83, 더원프라자 102호","number":"041-531-8276","Latitude":"36.9232885","Longitude":"127.0635174"},{"name":"모범약국","address":"충청남도 아산시 둔포면 둔포면로 1-1 (둔포면)","number":"041-531-2200","Latitude":"36.9272925","Longitude":"127.0362359"},{"name":"종로5가약국","address":"충청남도 아산시 온천대로 1489, 1층 (온천동)","number":"041-531-9351","Latitude":"36.7896296","Longitude":"127.001239"},{"name":"유정약국","address":"충청남도 아산시 남부로 353, 104호 (풍기동, 동일하이빌아파트상가)","number":"041-549-5315","Latitude":"36.7739025","Longitude":"127.0216132"},{"name":"사거리약국","address":"충청남도 아산시 온궁로 18, 1층 101호 (온천동)","number":"041-531-0042","Latitude":"36.7822174","Longitude":"127.0023961"},{"name":"충무연세약국","address":"충청남도 아산시 문화로 379, 나동 101호 (모종동)","number":"041-532-2592","Latitude":"36.7786246","Longitude":"127.025017"},{"name":"노벨약국","address":"충청남도 아산시 배방읍 북수로 103, 1층 (배방읍)","number":"041-548-4292","Latitude":"36.7740304","Longitude":"127.0722208"},{"name":"우성약국","address":"충청남도 아산시 배방읍 고속철대로 147, 111호 (우성메디피아)","number":"041-557-6900","Latitude":"36.7974719","Longitude":"127.1058679"},{"name":"온양다나약국","address":"충청남도 아산시 시민로 292 (용화동)","number":"041-549-0216","Latitude":"36.7700947","Longitude":"127.0013076"},{"name":"자연온누리약국","address":"충청남도 아산시 송악면 송악로 814, 1층","number":"041-912-9118","Latitude":"36.7335861","Longitude":"127.0103557"},{"name":"탑약국","address":"충청남도 아산시 음봉면 음봉로 672, 2동 1층 105호","number":"041-546-6386","Latitude":"36.8341412","Longitude":"127.082798"},{"name":"푸른약국","address":"충청남도 아산시 음봉면 음봉로 515-46, 109호 (레이크시티플라자)","number":"041-544-0321","Latitude":"36.8385851","Longitude":"127.0688868"},{"name":"하임약국","address":"충청남도 아산시 배방읍 고속철대로 61, 지하 1층 (배방읍)","number":"041-546-8110","Latitude":"36.7875487","Longitude":"127.110145"},{"name":"무성약국","address":"충청남도 아산시 외암로 1416 (읍내동)","number":"041-532-9770","Latitude":"36.7618435","Longitude":"127.0154204"},{"name":"미즈약국","address":"충청남도 아산시 배방읍 희망로46번길 16, 1층","number":"041-903-0622","Latitude":"36.7912636","Longitude":"127.1069425"},{"name":"리더스탑약국","address":"충청남도 아산시 충무로72번길 6","number":"041-545-7743","Latitude":"36.7871662","Longitude":"127.0066701"},{"name":"메디팜약손약국","address":"충청남도 아산시 시장길 32, 1층 104호 (온천동)","number":"041-545-4007","Latitude":"36.782793","Longitude":"127.0043044"},{"name":"이진약국","address":"충청남도 아산시 배방읍 희망로46번길 45-9, 1층 102호 (정주프라자)","number":"041-531-9474","Latitude":"36.7917264","Longitude":"127.1068257"},{"name":"배방드림약국","address":"충청남도 아산시 배방읍 배방로13번길 13, 105호","number":"041-544-1594","Latitude":"36.7710286","Longitude":"127.0630436"},{"name":"대동약국","address":"충청남도 아산시 시장남길 3 (온천동)","number":"041-545-2089","Latitude":"36.7832546","Longitude":"127.0012175"},{"name":"다사랑약국","address":"충청남도 아산시 충무로 34, 1층 (온천동)","number":"041-532-6789","Latitude":"36.7840382","Longitude":"127.0054669"},{"name":"경희수신한약국","address":"충청남도 아산시 용화고길 17, 1동 101호 (용화동)","number":"041-547-9922","Latitude":"36.7734866","Longitude":"127.0088112"},{"name":"건강약국","address":"충청남도 아산시 인주면 서해로 654","number":"041-542-9002","Latitude":"36.8818957","Longitude":"126.9107297"},{"name":"한미약국","address":"충청남도 아산시 고불로 669, 109호 (좌부동, 초원아파트2차상가)","number":"041-548-9664","Latitude":"36.752801","Longitude":"127.0298799"},{"name":"온양우정약국","address":"충청남도 아산시 용화고길 97, 1층 (용화동)","number":"041-533-6209","Latitude":"36.7736868","Longitude":"127.0125178"},{"name":"염치약국","address":"충청남도 아산시 염치읍 충무로 218","number":"041-533-4266","Latitude":"36.8003518","Longitude":"127.0079532"},{"name":"터미널약국","address":"충청남도 아산시 번영로 225 (모종동, 아산터미널 101호)","number":"041-542-5438","Latitude":"36.784864","Longitude":"127.0160976"},{"name":"아산정문약국","address":"충청남도 아산시 충무로 70 (권곡동)","number":"041-533-0990","Latitude":"36.7872115","Longitude":"127.0064835"},{"name":"아산우리약국","address":"충청남도 아산시 음봉면 아산온천로 228, 아산온천 101호","number":"041-544-0246","Latitude":"36.8531469","Longitude":"126.9818965"},{"name":"아산온누리약국","address":"충청남도 아산시 문화로 385, 1층 (모종동)","number":"041-534-5506","Latitude":"36.7839955","Longitude":"127.0211404"},{"name":"아산약국","address":"충청남도 아산시 삼동로40번길 33 (모종동)","number":"041-545-2284","Latitude":"36.7831167","Longitude":"127.0139517"},{"name":"신한얼약국","address":"충청남도 아산시 온천대로 1419 (온천동)","number":"041-541-8272","Latitude":"36.7889616","Longitude":"126.9984298"},{"name":"신창역신창약국","address":"충청남도 아산시 신창면 행목로 49, 1층","number":"041-541-5425","Latitude":"36.7757045","Longitude":"126.9519355"},{"name":"신세계약국","address":"충청남도 아산시 둔포면 충무로 1396 (둔포면)","number":"041-542-3433","Latitude":"36.8972153","Longitude":"127.0353565"},{"name":"수정약국","address":"충청남도 아산시 모종로 5 (모종동)","number":"041-545-8806","Latitude":"36.78422","Longitude":"127.0176953"},{"name":"큰온누리약국","address":"충청남도 아산시 둔포면 아산밸리중앙로 82, G플레이스1동 110호 (둔포면)","number":"041-532-3720","Latitude":"36.9232885","Longitude":"127.0635174"},{"name":"코끼리약국","address":"충청남도 아산시 온천대로 1678, 2층 (풍기동, 이마트아산점)","number":"041-544-0655","Latitude":"36.7767681","Longitude":"127.0217884"},{"name":"충무정문약국","address":"충청남도 아산시 모종남로12번길 11, 상가 1호 (모종동)","number":"041-534-2555","Latitude":"36.7810426","Longitude":"127.0280662"},{"name":"세종약국","address":"충청남도 아산시 온천대로 1450 (온천동)","number":"041-549-8981","Latitude":"36.7895012","Longitude":"126.9987264"},{"name":"청솔약국","address":"충청남도 아산시 도고면 아산만로 176 (도고면)","number":"041-541-3260","Latitude":"36.7591765","Longitude":"126.8681495"},{"name":"성림약국","address":"충청남도 아산시 음봉면 음봉면로 15 (음봉면)","number":"041-544-7582","Latitude":"36.8487394","Longitude":"127.0122295"},{"name":"진솔약국","address":"충청남도 아산시 배방읍 북수로 106, 범우빌딩 102호","number":"041-544-6388","Latitude":"36.7735879","Longitude":"127.0725633"},{"name":"새아산약국","address":"충청남도 아산시 인주면 현대로 1308 (인주면)","number":"041-533-5423","Latitude":"36.8696029","Longitude":"126.8856049"},{"name":"자이약국","address":"충청남도 아산시 배방읍 호서로 460, 2동 1층 107호 (배방자이1차아파트)","number":"041-544-3402","Latitude":"36.7657598","Longitude":"127.0850591"},{"name":"대영약국","address":"충청남도 아산시 도고면 온천대로 473-1","number":"041-544-0660","Latitude":"36.758255","Longitude":"126.904679"},{"name":"대학로약국","address":"충청남도 아산시 신창면 순천향로 5, 1층","number":"041-544-3433","Latitude":"36.7745966","Longitude":"126.9331559"},{"name":"도담약국","address":"충청남도 아산시 시장길 32, 1층 103호 (온천동)","number":"041-534-1226","Latitude":"36.782793","Longitude":"127.0043044"},{"name":"미소약국","address":"충청남도 아산시 문화로 329 (모종동)","number":"041-534-1533","Latitude":"36.7872801","Longitude":"127.0220481"},{"name":"서울온누리약국","address":"충청남도 아산시 신창면 온천대로 831, 1층","number":"041-547-8873","Latitude":"36.7769987","Longitude":"126.9342193"},{"name":"영인제일약국","address":"충청남도 아산시 영인면 아산리길 1-14","number":"041-541-0246","Latitude":"36.8559981","Longitude":"126.9534664"},{"name":"라키아명일약국","address":"충청남도 아산시 탕정면 탕정면로 20, 104,105호 (JS 팰리스빌딩)","number":"041-533-1269","Latitude":"36.8112671","Longitude":"127.0759848"},{"name":"광은약국","address":"충청남도 아산시 배방읍 배방로14번길 9, J,S 메디컬 1층 (배방읍)","number":"041-534-7098","Latitude":"36.7710286","Longitude":"127.0630436"},{"name":"메디칼약국","address":"충청남도 아산시 어의정로 8 (용화동)","number":"041-549-1275","Latitude":"36.7763174","Longitude":"126.9967101"},{"name":"모산종합약국","address":"충청남도 아산시 배방읍 모산로149번길 6 (배방읍)","number":"041-533-3534","Latitude":"36.7754291","Longitude":"127.0590392"},{"name":"둔포우리약국","address":"충청남도 아산시 둔포면 둔포중앙로 137 (둔포면)","number":"041-531-2053","Latitude":"36.9284628","Longitude":"127.0384212"},{"name":"시민약국","address":"충청남도 아산시 시민로 394, 시민약국 (온천동)","number":"041-545-2219","Latitude":"36.7836913","Longitude":"127.0011693"},{"name":"이화진약국","address":"충청남도 아산시 문화로 257-10, 1층 108호 (권곡동, 권곡한성하우시스)","number":"041-532-5950","Latitude":"36.7900375","Longitude":"127.0146048"},{"name":"삼성약국","address":"충청남도 아산시 둔포면 아산밸리중앙로 85","number":"041-531-1070","Latitude":"36.9232885","Longitude":"127.0635174"},{"name":"배방메디칼약국","address":"충청남도 아산시 배방읍 배방로 25, 장호빌딩 (배방읍)","number":"041-534-2999","Latitude":"36.7745474","Longitude":"127.0549074"},{"name":"풍기온누리약국","address":"충청남도 아산시 남부로 321-21, 1층 (풍기동)","number":"041-531-6555","Latitude":"36.7727705","Longitude":"127.017773"},{"name":"초원약국","address":"충청남도 아산시 음봉면 음봉로681번길 24 (음봉면)","number":"041-549-0995","Latitude":"36.8390368","Longitude":"127.085686"},{"name":"와이약국","address":"충청남도 아산시 배방읍 광장로 210, 202동 E214호 (요진Y시티)","number":"041-621-5752","Latitude":"36.79595","Longitude":"127.1087319"},{"name":"엄마약국","address":"충청남도 아산시 용화고길79번길 31 (용화동)","number":"041-534-3343","Latitude":"36.7742253","Longitude":"127.0109571"},{"name":"수약국","address":"충청남도 아산시 배방읍 배방로 49 (배방읍)","number":"041-541-8636","Latitude":"36.7724265","Longitude":"127.0550746"},{"name":"솔약국","address":"충청남도 아산시 충무로 18 (온천동)","number":"041-547-6363","Latitude":"36.7825947","Longitude":"127.0048413"},{"name":"새봄약국","address":"충청남도 아산시 번영로 223, 아산 동양고속터미널 복합시설 302호 (모종동)","number":"041-546-5015","Latitude":"36.7845806","Longitude":"127.0152102"},{"name":"늘푸른약국","address":"충청남도 아산시 청운로 49-1, 1층 (온천동)","number":"041-548-4111","Latitude":"36.7783335","Longitude":"127.0059607"},{"name":"샘약국","address":"충청남도 아산시 배방읍 북수로 128 (배방읍)","number":"041-541-2207","Latitude":"36.7737995","Longitude":"127.0748572"},{"name":"중앙약국","address":"충청남도 아산시 배방읍 배방로 26, 1층 (다온팰리스, 107~108호)","number":"041-544-9966","Latitude":"36.7710286","Longitude":"127.0630436"},{"name":"인주민약국","address":"충청남도 아산시 인주면 현대로 1298 (민약국)","number":"041-533-0238","Latitude":"36.8692292","Longitude":"126.8852479"},{"name":"녹십자약국","address":"충청남도 아산시 충무로 22, 103호 (온천동, UL CITY)","number":"041-533-6080","Latitude":"36.783033","Longitude":"127.0052031"},{"name":"튼튼온누리약국","address":"충청남도 아산시 탕정면 탕정면로 37, 2층 207호 (탕정삼성트라팰리스아파트)","number":"041-541-9100","Latitude":"36.8006907","Longitude":"127.0596558"},{"name":"이화약국","address":"충청남도 아산시 온천대로 1509-3 (온천동)","number":"041-545-1157","Latitude":"36.7879736","Longitude":"127.0005289"},{"name":"올리브약국","address":"충청남도 아산시 신창면 행목로 212-1, 1층 102호","number":"041-532-5490","Latitude":"36.782812","Longitude":"126.955045"},{"name":"도움약국","address":"충청남도 아산시 문화로 385, 1층 (모종동)","number":"041-546-7579","Latitude":"36.7839955","Longitude":"127.0211404"},{"name":"둔포약국","address":"충청남도 아산시 둔포면 둔포로 34 (둔포면)","number":"041-531-7164","Latitude":"36.9273273","Longitude":"127.0384209"},{"name":"가장큰약국","address":"충청남도 아산시 모종남로12번길 9, 1층 (모종동)","number":"041-534-9798","Latitude":"36.7810426","Longitude":"127.0280662"},{"name":"소망약국","address":"충청남도 아산시 온천대로 1484 (온천동)","number":"041-532-0011","Latitude":"36.7889597","Longitude":"126.9998113"},{"name":"성실약국","address":"충청남도 아산시 배방읍 배방로 158, 2층(삼성전자온양사업장복지매장)","number":"041-540-6415","Latitude":"36.7660129","Longitude":"127.062473"},{"name":"신대지약국","address":"충청남도 아산시 충무로 4, 인당빌딩 1층 (온천동)","number":"041-547-7554","Latitude":"36.7815878","Longitude":"127.0044847"},{"name":"큰사랑약국","address":"충청남도 아산시 문화로 25-6 (실옥동)","number":"041-541-3433","Latitude":"36.7872848","Longitude":"126.9895076"},{"name":"아산성심약국","address":"충청남도 아산시 온천대로 1483, 1층 (온천동)","number":"041-544-2070","Latitude":"36.7896296","Longitude":"127.001239"},{"name":"건강한새아산약국","address":"충청남도 아산시 온천대로 1108, 1층 (득산동)","number":"041-545-2626","Latitude":"36.7733773","Longitude":"126.9752836"},{"name":"조이행복약국","address":"충청남도 아산시 외암로 1245, 청솔아파트 상가 107-2호 (장존동)","number":"041-547-3411","Latitude":"36.7477302","Longitude":"127.0151696"},{"name":"건강한약국","address":"충청남도 아산시 배방읍 배방로 53, 308호 (황금프라자)","number":"041-544-2086","Latitude":"36.7720774","Longitude":"127.0552341"},{"name":"필그림약국","address":"충청남도 아산시 온천대로 1472 (온천동)","number":"041-542-8855","Latitude":"36.7893272","Longitude":"126.9998939"},{"name":"꿈의약국","address":"충청남도 아산시 온주길16번길 10, 1층 (읍내동)","number":"041-541-5339","Latitude":"36.7614695","Longitude":"127.0171634"},{"name":"다인약국","address":"충청남도 아산시 배방읍 희망로46번길 45-17, 1층 107호","number":"041-546-7006","Latitude":"36.7917264","Longitude":"127.1068257"},{"name":"대한약국","address":"충청남도 아산시 번영로230번길 14 (모종동)","number":"041-544-9452","Latitude":"36.7829235","Longitude":"127.0156516"},{"name":"약산약국","address":"충청남도 아산시 온천대로 1492, 1층 (온천동)","number":"041-544-4949","Latitude":"36.7896296","Longitude":"127.001239"},{"name":"드림약국","address":"충청남도 아산시 시장길25번길 2 (온천동, 수정빌딩(1층))","number":"041-425-0060","Latitude":"36.7832144","Longitude":"127.0039505"},{"name":"세성당약국","address":"충청남도 아산시 삼동로40번길 38 (모종동)","number":"041-545-4950","Latitude":"36.7827752","Longitude":"127.0152737"},{"name":"아산조은약국","address":"충청남도 아산시 온천대로 1474 (온천동)","number":"041-549-3003","Latitude":"36.7893349","Longitude":"126.9996283"},{"name":"다모아약국","address":"충청남도 아산시 충무로 16 (온천동)","number":"041-533-0377","Latitude":"36.7824629","Longitude":"127.0048106"},{"name":"충무드림약국","address":"충청남도 아산시 모종남로12번길 16, 104호 (모종동)","number":"041-531-0321","Latitude":"36.7810426","Longitude":"127.0280662"},{"name":"대광약국","address":"충청남도 아산시 모종남로12번길 7, 1층 (모종동)","number":"041-545-1488","Latitude":"36.7810426","Longitude":"127.0280662"},{"name":"탕정온빛약국","address":"충청남도 아산시 탕정면 한들물빛도시로 85, 103호","number":"041-549-3649","Latitude":"36.7839134","Longitude":"127.0849837"},{"name":"시민로사거리약국","address":"충청남도 아산시 번영로 99, 시민로사거리약국 1층 (온천동)","number":"041-548-5841","Latitude":"36.786122","Longitude":"127.001805"},{"name":"미래약국","address":"충청남도 아산시 배방읍 용연로 152, 1층 104호","number":"041-533-4239","Latitude":"36.7848819","Longitude":"127.094766"},{"name":"온약국","address":"충청남도 아산시 아산로 118-3, 1층 103호 (온천동)","number":"041-541-5841","Latitude":"36.784175","Longitude":"127.0031908"},{"name":"탕정한빛약국","address":"충청남도 아산시 탕정면 탕정면로 225 (탕정면)","number":"041-544-9606","Latitude":"36.8091208","Longitude":"127.0759487"},{"name":"행복이열리는약국","address":"충청남도 아산시 서부북로 973, 115호 (배미동, 서진아파트상가)","number":"041-548-4163","Latitude":"36.7893186","Longitude":"126.9670503"},{"name":"아산프라자약국","address":"충청남도 아산시 번영로 204 (모종동)","number":"041-533-0787","Latitude":"36.7843703","Longitude":"127.0133184"},{"name":"아산종합약국","address":"충청남도 아산시 충무로 9 (온천동)","number":"041-547-6500","Latitude":"36.7822658","Longitude":"127.0041992"},{"name":"사랑온누리약국","address":"충청남도 아산시 신창면 남성길 124","number":"041-531-7045","Latitude":"36.7903974","Longitude":"126.9544725"},{"name":"갑자약국","address":"충청남도 아산시 배방읍 용연로 84-7, 105호 (에듀시티)","number":"041-534-2747","Latitude":"36.7889492","Longitude":"127.0898522"},{"name":"세계로약국","address":"충청남도 아산시 시민로 423 (온천동)","number":"041-549-4161","Latitude":"36.7881586","Longitude":"127.0009043"},{"name":"친절한마음약국","address":"충청남도 아산시 용화로9번길 4-22 (용화동)","number":"041-533-0825","Latitude":"36.7714091","Longitude":"127.0085581"},{"name":"모산종로약국","address":"충청남도 아산시 배방읍 모산로 185 (배방읍)","number":"041-549-4131","Latitude":"36.7755281","Longitude":"127.0631312"},{"name":"음봉약국","address":"충청남도 아산시 음봉면 음봉로 805","number":"041-533-8075","Latitude":"36.8290276","Longitude":"127.0963907"},{"name":"그린약국","address":"충청남도 아산시 온천대로 1480, 1층 (온천동)","number":"041-545-2071","Latitude":"36.7896296","Longitude":"127.001239"},{"name":"광해약국","address":"충청남도 아산시 번영로230번길 15 (모종동)","number":"041-546-4566","Latitude":"36.7825283","Longitude":"127.0158202"},{"name":"오렌지온누리약국","address":"충청남도 아산시 번영로234번길 2 (모종동)","number":"041-532-1400","Latitude":"36.783673","Longitude":"127.016499"},{"name":"365열린약국","address":"충청남도 아산시 번영로 223, 4층 (모종동, 아산동양고속터미널복합시설)","number":"041-533-9610","Latitude":"36.7845806","Longitude":"127.0152102"},{"name":"태평양약국","address":"충청남도 아산시 시민로 293 (용화동)","number":"041-545-7582","Latitude":"36.7700947","Longitude":"127.0013076"},{"name":"하마약국","address":"충청남도 아산시 둔포면 아산밸리중앙로 83, 더원프라자 102호","number":"041-531-8276","Latitude":"36.9232885","Longitude":"127.0635174"},{"name":"모범약국","address":"충청남도 아산시 둔포면 둔포면로 1-1 (둔포면)","number":"041-531-2200","Latitude":"36.9272925","Longitude":"127.0362359"},{"name":"종로5가약국","address":"충청남도 아산시 온천대로 1489, 1층 (온천동)","number":"041-531-9351","Latitude":"36.7896296","Longitude":"127.001239"},{"name":"유정약국","address":"충청남도 아산시 남부로 353, 104호 (풍기동, 동일하이빌아파트상가)","number":"041-549-5315","Latitude":"36.7739025","Longitude":"127.0216132"},{"name":"사거리약국","address":"충청남도 아산시 온궁로 18, 1층 101호 (온천동)","number":"041-531-0042","Latitude":"36.7822174","Longitude":"127.0023961"},{"name":"충무연세약국","address":"충청남도 아산시 문화로 379, 나동 101호 (모종동)","number":"041-532-2592","Latitude":"36.7786246","Longitude":"127.025017"},{"name":"노벨약국","address":"충청남도 아산시 배방읍 북수로 103, 1층 (배방읍)","number":"041-548-4292","Latitude":"36.7740304","Longitude":"127.0722208"},{"name":"우성약국","address":"충청남도 아산시 배방읍 고속철대로 147, 111호 (우성메디피아)","number":"041-557-6900","Latitude":"36.7974719","Longitude":"127.1058679"},{"name":"온양다나약국","address":"충청남도 아산시 시민로 292 (용화동)","number":"041-549-0216","Latitude":"36.7700947","Longitude":"127.0013076"},{"name":"자연온누리약국","address":"충청남도 아산시 송악면 송악로 814, 1층","number":"041-912-9118","Latitude":"36.7335861","Longitude":"127.0103557"},{"name":"탑약국","address":"충청남도 아산시 음봉면 음봉로 672, 2동 1층 105호","number":"041-546-6386","Latitude":"36.8341412","Longitude":"127.082798"},{"name":"푸른약국","address":"충청남도 아산시 음봉면 음봉로 515-46, 109호 (레이크시티플라자)","number":"041-544-0321","Latitude":"36.8385851","Longitude":"127.0688868"},{"name":"하임약국","address":"충청남도 아산시 배방읍 고속철대로 61, 지하 1층 (배방읍)","number":"041-546-8110","Latitude":"36.7875487","Longitude":"127.110145"},{"name":"무성약국","address":"충청남도 아산시 외암로 1416 (읍내동)","number":"041-532-9770","Latitude":"36.7618435","Longitude":"127.0154204"},{"name":"미즈약국","address":"충청남도 아산시 배방읍 희망로46번길 16, 1층","number":"041-903-0622","Latitude":"36.7912636","Longitude":"127.1069425"},{"name":"리더스탑약국","address":"충청남도 아산시 충무로72번길 6","number":"041-545-7743","Latitude":"36.7871662","Longitude":"127.0066701"},{"name":"메디팜약손약국","address":"충청남도 아산시 시장길 32, 1층 104호 (온천동)","number":"041-545-4007","Latitude":"36.782793","Longitude":"127.0043044"},{"name":"이진약국","address":"충청남도 아산시 배방읍 희망로46번길 45-9, 1층 102호 (정주프라자)","number":"041-531-9474","Latitude":"36.7917264","Longitude":"127.1068257"},{"name":"배방드림약국","address":"충청남도 아산시 배방읍 배방로13번길 13, 105호","number":"041-544-1594","Latitude":"36.7710286","Longitude":"127.0630436"},{"name":"대동약국","address":"충청남도 아산시 시장남길 3 (온천동)","number":"041-545-2089","Latitude":"36.7832546","Longitude":"127.0012175"},{"name":"다사랑약국","address":"충청남도 아산시 충무로 34, 1층 (온천동)","number":"041-532-6789","Latitude":"36.7840382","Longitude":"127.0054669"},{"name":"경희수신한약국","address":"충청남도 아산시 용화고길 17, 1동 101호 (용화동)","number":"041-547-9922","Latitude":"36.7734866","Longitude":"127.0088112"},{"name":"건강약국","address":"충청남도 아산시 인주면 서해로 654","number":"041-542-9002","Latitude":"36.8818957","Longitude":"126.9107297"},{"name":"한미약국","address":"충청남도 아산시 고불로 669, 109호 (좌부동, 초원아파트2차상가)","number":"041-548-9664","Latitude":"36.752801","Longitude":"127.0298799"},{"name":"온양우정약국","address":"충청남도 아산시 용화고길 97, 1층 (용화동)","number":"041-533-6209","Latitude":"36.7736868","Longitude":"127.0125178"},{"name":"염치약국","address":"충청남도 아산시 염치읍 충무로 218","number":"041-533-4266","Latitude":"36.8003518","Longitude":"127.0079532"},{"name":"터미널약국","address":"충청남도 아산시 번영로 225 (모종동, 아산터미널 101호)","number":"041-542-5438","Latitude":"36.784864","Longitude":"127.0160976"},{"name":"아산정문약국","address":"충청남도 아산시 충무로 70 (권곡동)","number":"041-533-0990","Latitude":"36.7872115","Longitude":"127.0064835"},{"name":"아산우리약국","address":"충청남도 아산시 음봉면 아산온천로 228, 아산온천 101호","number":"041-544-0246","Latitude":"36.8531469","Longitude":"126.9818965"},{"name":"아산온누리약국","address":"충청남도 아산시 문화로 385, 1층 (모종동)","number":"041-534-5506","Latitude":"36.7839955","Longitude":"127.0211404"},{"name":"아산약국","address":"충청남도 아산시 삼동로40번길 33 (모종동)","number":"041-545-2284","Latitude":"36.7831167","Longitude":"127.0139517"},{"name":"신한얼약국","address":"충청남도 아산시 온천대로 1419 (온천동)","number":"041-541-8272","Latitude":"36.7889616","Longitude":"126.9984298"},{"name":"신창역신창약국","address":"충청남도 아산시 신창면 행목로 49, 1층","number":"041-541-5425","Latitude":"36.7757045","Longitude":"126.9519355"},{"name":"신세계약국","address":"충청남도 아산시 둔포면 충무로 1396 (둔포면)","number":"041-542-3433","Latitude":"36.8972153","Longitude":"127.0353565"},{"name":"수정약국","address":"충청남도 아산시 모종로 5 (모종동)","number":"041-545-8806","Latitude":"36.78422","Longitude":"127.0176953"},{"name":"큰온누리약국","address":"충청남도 아산시 둔포면 아산밸리중앙로 82, G플레이스1동 110호 (둔포면)","number":"041-532-3720","Latitude":"36.9232885","Longitude":"127.0635174"},{"name":"코끼리약국","address":"충청남도 아산시 온천대로 1678, 2층 (풍기동, 이마트아산점)","number":"041-544-0655","Latitude":"36.7767681","Longitude":"127.0217884"},{"name":"충무정문약국","address":"충청남도 아산시 모종남로12번길 11, 상가 1호 (모종동)","number":"041-534-2555","Latitude":"36.7810426","Longitude":"127.0280662"},{"name":"세종약국","address":"충청남도 아산시 온천대로 1450 (온천동)","number":"041-549-8981","Latitude":"36.7895012","Longitude":"126.9987264"},{"name":"청솔약국","address":"충청남도 아산시 도고면 아산만로 176 (도고면)","number":"041-541-3260","Latitude":"36.7591765","Longitude":"126.8681495"},{"name":"성림약국","address":"충청남도 아산시 음봉면 음봉면로 15 (음봉면)","number":"041-544-7582","Latitude":"36.8487394","Longitude":"127.0122295"},{"name":"진솔약국","address":"충청남도 아산시 배방읍 북수로 106, 범우빌딩 102호","number":"041-544-6388","Latitude":"36.7735879","Longitude":"127.0725633"},{"name":"새아산약국","address":"충청남도 아산시 인주면 현대로 1308 (인주면)","number":"041-533-5423","Latitude":"36.8696029","Longitude":"126.8856049"},{"name":"자이약국","address":"충청남도 아산시 배방읍 호서로 460, 2동 1층 107호 (배방자이1차아파트)","number":"041-544-3402","Latitude":"36.7657598","Longitude":"127.0850591"},{"name":"대영약국","address":"충청남도 아산시 도고면 온천대로 473-1","number":"041-544-0660","Latitude":"36.758255","Longitude":"126.904679"},{"name":"대학로약국","address":"충청남도 아산시 신창면 순천향로 5, 1층","number":"041-544-3433","Latitude":"36.7745966","Longitude":"126.9331559"},{"name":"도담약국","address":"충청남도 아산시 시장길 32, 1층 103호 (온천동)","number":"041-534-1226","Latitude":"36.782793","Longitude":"127.0043044"},{"name":"미소약국","address":"충청남도 아산시 문화로 329 (모종동)","number":"041-534-1533","Latitude":"36.7872801","Longitude":"127.0220481"},{"name":"서울온누리약국","address":"충청남도 아산시 신창면 온천대로 831, 1층","number":"041-547-8873","Latitude":"36.7769987","Longitude":"126.9342193"},{"name":"영인제일약국","address":"충청남도 아산시 영인면 아산리길 1-14","number":"041-541-0246","Latitude":"36.8559981","Longitude":"126.9534664"},{"name":"라키아명일약국","address":"충청남도 아산시 탕정면 탕정면로 20, 104,105호 (JS 팰리스빌딩)","number":"041-533-1269","Latitude":"36.8112671","Longitude":"127.0759848"},{"name":"광은약국","address":"충청남도 아산시 배방읍 배방로14번길 9, J,S 메디컬 1층 (배방읍)","number":"041-534-7098","Latitude":"36.7710286","Longitude":"127.0630436"},{"name":"메디칼약국","address":"충청남도 아산시 어의정로 8 (용화동)","number":"041-549-1275","Latitude":"36.7763174","Longitude":"126.9967101"},{"name":"모산종합약국","address":"충청남도 아산시 배방읍 모산로149번길 6 (배방읍)","number":"041-533-3534","Latitude":"36.7754291","Longitude":"127.0590392"},{"name":"둔포우리약국","address":"충청남도 아산시 둔포면 둔포중앙로 137 (둔포면)","number":"041-531-2053","Latitude":"36.9284628","Longitude":"127.0384212"},{"name":"시민약국","address":"충청남도 아산시 시민로 394, 시민약국 (온천동)","number":"041-545-2219","Latitude":"36.7836913","Longitude":"127.0011693"},{"name":"이화진약국","address":"충청남도 아산시 문화로 257-10, 1층 108호 (권곡동, 권곡한성하우시스)","number":"041-532-5950","Latitude":"36.7900375","Longitude":"127.0146048"},{"name":"삼성약국","address":"충청남도 아산시 둔포면 아산밸리중앙로 85","number":"041-531-1070","Latitude":"36.9232885","Longitude":"127.0635174"},{"name":"배방메디칼약국","address":"충청남도 아산시 배방읍 배방로 25, 장호빌딩 (배방읍)","number":"041-534-2999","Latitude":"36.7745474","Longitude":"127.0549074"},{"name":"풍기온누리약국","address":"충청남도 아산시 남부로 321-21, 1층 (풍기동)","number":"041-531-6555","Latitude":"36.7727705","Longitude":"127.017773"},{"name":"초원약국","address":"충청남도 아산시 음봉면 음봉로681번길 24 (음봉면)","number":"041-549-0995","Latitude":"36.8390368","Longitude":"127.085686"},{"name":"와이약국","address":"충청남도 아산시 배방읍 광장로 210, 202동 E214호 (요진Y시티)","number":"041-621-5752","Latitude":"36.79595","Longitude":"127.1087319"},{"name":"엄마약국","address":"충청남도 아산시 용화고길79번길 31 (용화동)","number":"041-534-3343","Latitude":"36.7742253","Longitude":"127.0109571"},{"name":"수약국","address":"충청남도 아산시 배방읍 배방로 49 (배방읍)","number":"041-541-8636","Latitude":"36.7724265","Longitude":"127.0550746"},{"name":"솔약국","address":"충청남도 아산시 충무로 18 (온천동)","number":"041-547-6363","Latitude":"36.7825947","Longitude":"127.0048413"},{"name":"새봄약국","address":"충청남도 아산시 번영로 223, 아산 동양고속터미널 복합시설 302호 (모종동)","number":"041-546-5015","Latitude":"36.7845806","Longitude":"127.0152102"},{"name":"늘푸른약국","address":"충청남도 아산시 청운로 49-1, 1층 (온천동)","number":"041-548-4111","Latitude":"36.7783335","Longitude":"127.0059607"},{"name":"샘약국","address":"충청남도 아산시 배방읍 북수로 128 (배방읍)","number":"041-541-2207","Latitude":"36.7737995","Longitude":"127.0748572"},{"name":"중앙약국","address":"충청남도 아산시 배방읍 배방로 26, 1층 (다온팰리스, 107~108호)","number":"041-544-9966","Latitude":"36.7710286","Longitude":"127.0630436"},{"name":"인주민약국","address":"충청남도 아산시 인주면 현대로 1298 (민약국)","number":"041-533-0238","Latitude":"36.8692292","Longitude":"126.8852479"},{"name":"녹십자약국","address":"충청남도 아산시 충무로 22, 103호 (온천동, UL CITY)","number":"041-533-6080","Latitude":"36.783033","Longitude":"127.0052031"},{"name":"튼튼온누리약국","address":"충청남도 아산시 탕정면 탕정면로 37, 2층 207호 (탕정삼성트라팰리스아파트)","number":"041-541-9100","Latitude":"36.8006907","Longitude":"127.0596558"},{"name":"이화약국","address":"충청남도 아산시 온천대로 1509-3 (온천동)","number":"041-545-1157","Latitude":"36.7879736","Longitude":"127.0005289"},{"name":"올리브약국","address":"충청남도 아산시 신창면 행목로 212-1, 1층 102호","number":"041-532-5490","Latitude":"36.782812","Longitude":"126.955045"},{"name":"도움약국","address":"충청남도 아산시 문화로 385, 1층 (모종동)","number":"041-546-7579","Latitude":"36.7839955","Longitude":"127.0211404"},{"name":"둔포약국","address":"충청남도 아산시 둔포면 둔포로 34 (둔포면)","number":"041-531-7164","Latitude":"36.9273273","Longitude":"127.0384209"},{"name":"가장큰약국","address":"충청남도 아산시 모종남로12번길 9, 1층 (모종동)","number":"041-534-9798","Latitude":"36.7810426","Longitude":"127.0280662"},{"name":"소망약국","address":"충청남도 아산시 온천대로 1484 (온천동)","number":"041-532-0011","Latitude":"36.7889597","Longitude":"126.9998113"},{"name":"성실약국","address":"충청남도 아산시 배방읍 배방로 158, 2층(삼성전자온양사업장복지매장)","number":"041-540-6415","Latitude":"36.7660129","Longitude":"127.062473"},{"name":"신대지약국","address":"충청남도 아산시 충무로 4, 인당빌딩 1층 (온천동)","number":"041-547-7554","Latitude":"36.7815878","Longitude":"127.0044847"},{"name":"큰사랑약국","address":"충청남도 아산시 문화로 25-6 (실옥동)","number":"041-541-3433","Latitude":"36.7872848","Longitude":"126.9895076"},{"name":"아산성심약국","address":"충청남도 아산시 온천대로 1483, 1층 (온천동)","number":"041-544-2070","Latitude":"36.7896296","Longitude":"127.001239"},{"name":"건강한새아산약국","address":"충청남도 아산시 온천대로 1108, 1층 (득산동)","number":"041-545-2626","Latitude":"36.7733773","Longitude":"126.9752836"},{"name":"조이행복약국","address":"충청남도 아산시 외암로 1245, 청솔아파트 상가 107-2호 (장존동)","number":"041-547-3411","Latitude":"36.7477302","Longitude":"127.0151696"},{"name":"건강한약국","address":"충청남도 아산시 배방읍 배방로 53, 308호 (황금프라자)","number":"041-544-2086","Latitude":"36.7720774","Longitude":"127.0552341"},{"name":"필그림약국","address":"충청남도 아산시 온천대로 1472 (온천동)","number":"041-542-8855","Latitude":"36.7893272","Longitude":"126.9998939"},{"name":"꿈의약국","address":"충청남도 아산시 온주길16번길 10, 1층 (읍내동)","number":"041-541-5339","Latitude":"36.7614695","Longitude":"127.0171634"},{"name":"다인약국","address":"충청남도 아산시 배방읍 희망로46번길 45-17, 1층 107호","number":"041-546-7006","Latitude":"36.7917264","Longitude":"127.1068257"},{"name":"대한약국","address":"충청남도 아산시 번영로230번길 14 (모종동)","number":"041-544-9452","Latitude":"36.7829235","Longitude":"127.0156516"},{"name":"약산약국","address":"충청남도 아산시 온천대로 1492, 1층 (온천동)","number":"041-544-4949","Latitude":"36.7896296","Longitude":"127.001239"},{"name":"드림약국","address":"충청남도 아산시 시장길25번길 2 (온천동, 수정빌딩(1층))","number":"041-425-0060","Latitude":"36.7832144","Longitude":"127.0039505"},{"name":"세성당약국","address":"충청남도 아산시 삼동로40번길 38 (모종동)","number":"041-545-4950","Latitude":"36.7827752","Longitude":"127.0152737"},{"name":"아산조은약국","address":"충청남도 아산시 온천대로 1474 (온천동)","number":"041-549-3003","Latitude":"36.7893349","Longitude":"126.9996283"},{"name":"다모아약국","address":"충청남도 아산시 충무로 16 (온천동)","number":"041-533-0377","Latitude":"36.7824629","Longitude":"127.0048106"}]